---
-
    station: AAGBAKRO
    lon: -3.9666
    lat: 7.7602
-
    station: ABADJIN-DOUME
    lon: -4.1421
    lat: 5.3089
-
    station: ABADJIN-KOUTE
    lon: -4.1472
    lat: 5.3323
-
    station: ABAKRO
    lon: -5.2501
    lat: 6.6903
-
    station: ABATOULILIE
    lon: -5.6038
    lat: 5.9929
-
    station: ABATTA
    lon: -3.9072
    lat: 5.3355
-
    station: ABAYANSI
    lon: -5.5709
    lat: 7.5922
-
    station: ABBE BEGNINI
    lon: -3.9998
    lat: 5.635
-
    station: ABE
    lon: -5.3296
    lat: 7.1996
-
    station: ABE-AHOUGNASS
    lon: -5.3468
    lat: 7.8469
-
    station: ABE-KOUADIOKR
    lon: -5.3566
    lat: 7.8439
-
    station: ABEANOU
    lon: -4.2363
    lat: 6.9738
-
    station: ABEDENI
    lon: -4.0588
    lat: 7.6837
-
    station: ABEGUE
    lon: -4.153
    lat: 5.7986
-
    station: ABEMA
    lon: -2.7614
    lat: 8.1193
-
    station: ABENGOUROU
    lon: -3.506
    lat: 6.7402
-
    station: ABEVE
    lon: -4.7425
    lat: 5.909
-
    station: ABI-KOFFIKRO
    lon: -5.506
    lat: 7.3145
-
    station: ABIATE 1
    lon: -4.3331
    lat: 5.3806
-
    station: ABIATE 2
    lon: -4.3017
    lat: 5.4016
-
    station: ABIATE 2
    lon: -3.158
    lat: 5.4019
-
    station: ABIATY
    lon: -3.17
    lat: 5.2875
-
    station: ABIDJAN
    lon: -4.0247
    lat: 5.3386
-
    station: ABIDJI
    lon: -5.0111
    lat: 7.5918
-
    station: ABIE
    lon: -3.9288
    lat: 5.8601
-
    station: ABIEHOU
    lon: -4.5329
    lat: 5.5561
-
    station: ABIGUI
    lon: -4.8342
    lat: 6.6964
-
    station: ABIGUI
    lon: -5.0192
    lat: 6.9393
-
    station: ABIKRO
    lon: -5.4448
    lat: 7.8142
-
    station: ABLEKRO
    lon: -5.0542
    lat: 7.5218
-
    station: ABLI ALLOUKRO
    lon: -4.9992
    lat: 6.593
-
    station: ABLI BONIKRO
    lon: -4.995
    lat: 6.5957
-
    station: ABLINKRO
    lon: -4.8689
    lat: 7.3291
-
    station: ABO KOUADIOKR
    lon: -4.8111
    lat: 7.2165
-
    station: ABO KOUASSIKR
    lon: -4.7015
    lat: 7.1685
-
    station: ABO-BLAKRO
    lon: -4.9843
    lat: 7.0883
-
    station: ABO-KOUAMEKRO
    lon: -5.0954
    lat: 6.8324
-
    station: ABOBO
    lon: -4.0197
    lat: 5.3952
-
    station: ABOGNIKRO
    lon: -4.4148
    lat: 7.1805
-
    station: ABOHIO
    lon: -5.8117
    lat: 5.9651
-
    station: ABOIDJIKRO
    lon: -3.5215
    lat: 6.793
-
    station: ABOISSO
    lon: -3.2038
    lat: 5.4691
-
    station: ABOISSO-COMOE
    lon: -3.4439
    lat: 5.7321
-
    station: ABOKA
    lon: -6.8168
    lat: 6.5346
-
    station: ABOKOSSO
    lon: -3.597
    lat: 7.6016
-
    station: ABOKOUMAN
    lon: -3.131
    lat: 7.7081
-
    station: ABOKRO
    lon: -4.2854
    lat: 7.4727
-
    station: ABOKRO DAME
    lon: -3.3557
    lat: 7.5142
-
    station: ABOLIKOUASSIK
    lon: -5.3331
    lat: 7.6799
-
    station: ABONGOUA
    lon: -3.5402
    lat: 6.2471
-
    station: ABONGOUA
    lon: -4.1016
    lat: 6.6539
-
    station: ABONGUI MOROK
    lon: -3.4231
    lat: 7.8996
-
    station: ABONGUI TIEKO
    lon: -3.3831
    lat: 7.8807
-
    station: ABORE-ASSEKRO
    lon: -5.0349
    lat: 7.0883
-
    station: ABOU SEKAKOUA
    lon: -3.8323
    lat: 6.152
-
    station: ABOU-ANGANKRO
    lon: -4.9734
    lat: 7.7457
-
    station: ABOUA KOMOEKR
    lon: -3.9902
    lat: 7.5534
-
    station: ABOUA-KOUASSI
    lon: -5.3346
    lat: 6.8336
-
    station: ABOUAKAKRO
    lon: -5.1061
    lat: 6.4731
-
    station: ABOUAKRO
    lon: -5.5282
    lat: 7.5647
-
    station: ABOUAKRO
    lon: -4.8311
    lat: 7.6854
-
    station: ABOUANOUKPINK
    lon: -4.0653
    lat: 7.2039
-
    station: ABOUDE MANDEK
    lon: -4.5357
    lat: 5.8959
-
    station: ABOUDE-KOUASS
    lon: -4.5636
    lat: 5.8962
-
    station: ABOUKRO
    lon: -5.3266
    lat: 6.7573
-
    station: ABOULIE
    lon: -2.9231
    lat: 5.4544
-
    station: ABOUOKRO
    lon: -4.8309
    lat: 7.7176
-
    station: ABOUSSOU
    lon: -5.3872
    lat: 7.5012
-
    station: ABOUTOU
    lon: -3.338
    lat: 5.2146
-
    station: ABOUTOUKRO
    lon: -4.3407
    lat: 6.9908
-
    station: ABRACO
    lon: -4.4546
    lat: 5.2668
-
    station: ABRADINE 1
    lon: -3.6114
    lat: 6.1988
-
    station: ABRADINE 2
    lon: -3.5998
    lat: 6.2012
-
    station: ABRADINOU
    lon: -3.4568
    lat: 6.1824
-
    station: ABRANIAMIABO
    lon: -4.452
    lat: 5.2662
-
    station: ABREBY
    lon: -4.2324
    lat: 5.2189
-
    station: ABRIKA
    lon: -5.3153
    lat: 7.2253
-
    station: ABROBAKRO
    lon: -3.5053
    lat: 5.2771
-
    station: ABRONAMOUE
    lon: -3.3314
    lat: 6.7516
-
    station: ABROTCHI
    lon: -3.6383
    lat: 5.5443
-
    station: ABY
    lon: -3.1682
    lat: 5.3047
-
    station: ABY MOHOUA
    lon: -3.1344
    lat: 5.1463
-
    station: ACHIEKOI
    lon: -3.9267
    lat: 5.6393
-
    station: ACHOKOI
    lon: -3.8333
    lat: 5.3734
-
    station: ADAHAMA
    lon: -3.5461
    lat: 7.2706
-
    station: ADAHIDOUKOU
    lon: -5.217
    lat: 5.3077
-
    station: ADAHOU
    lon: -4.2282
    lat: 5.899
-
    station: ADAHOU
    lon: -4.8316
    lat: 6.8159
-
    station: ADAKIE
    lon: -4.167
    lat: 5.5403
-
    station: ADAMADOUGOU
    lon: -6.5408
    lat: 5.2336
-
    station: ADANDIA
    lon: -3.0061
    lat: 7.7594
-
    station: ADANGBABAHN
    lon: -4.603
    lat: 5.4492
-
    station: ADAOU
    lon: -3.2662
    lat: 5.427
-
    station: ADAOU
    lon: -3.5167
    lat: 6.7179
-
    station: ADAOU
    lon: -4.8821
    lat: 6.2751
-
    station: ADAROME
    lon: -4.1893
    lat: 5.5758
-
    station: ADDAH
    lon: -4.6445
    lat: 5.1726
-
    station: ADDISSAKASSOU
    lon: -5.1075
    lat: 7.5984
-
    station: ADEBEM
    lon: -5.8419
    lat: 5.4831
-
    station: ADESSE
    lon: -4.6932
    lat: 5.1635
-
    station: ADI KOFFIKRO
    lon: -4.6357
    lat: 7.2186
-
    station: ADI YAPIKRO
    lon: -4.3099
    lat: 7.557
-
    station: ADI-EKRAKRO
    lon: -4.0233
    lat: 7.5421
-
    station: ADIAKE
    lon: -3.3053
    lat: 5.2842
-
    station: ADIAMARA
    lon: -2.9005
    lat: 7.7115
-
    station: ADIAOU
    lon: -4.0441
    lat: 7.2204
-
    station: ADIAPOTE
    lon: -4.1542
    lat: 5.315
-
    station: ADIAPOTO 1
    lon: -4.1809
    lat: 5.3125
-
    station: ADIAPOTO 2
    lon: -4.1861
    lat: 5.3066
-
    station: ADIAPRI-KOFFI
    lon: -4.9495
    lat: 7.6144
-
    station: ADIBROBO
    lon: -4.5998
    lat: 6.5073
-
    station: ADIEBONOU
    lon: -5.2573
    lat: 7.8183
-
    station: ADIEKANKRO
    lon: -4.9687
    lat: 7.8101
-
    station: ADIEKRO
    lon: -5.1985
    lat: 7.797
-
    station: 'ADIEKRO-N''DOL'
    lon: -5.06
    lat: 7.4965
-
    station: ADIHAO
    lon: -3.6059
    lat: 5.2752
-
    station: ADIKANKRO
    lon: -3.9101
    lat: 7.528
-
    station: ADIKOKOI
    lon: -3.7157
    lat: 6.6266
-
    station: ADIKRO
    lon: -4.8515
    lat: 7.7553
-
    station: ADIKRO
    lon: -3.9339
    lat: 7.5244
-
    station: ADIKRO
    lon: -4.9457
    lat: 6.9208
-
    station: ADIKRO-FOUNDI
    lon: -4.8468
    lat: 7.7459
-
    station: ADIOKRO
    lon: -5.4245
    lat: 7.9738
-
    station: ADIOPENAN
    lon: -2.928
    lat: 7.6959
-
    station: ADIOPO-MORONO
    lon: -4.1778
    lat: 5.3364
-
    station: ADJACOUTIE
    lon: -4.5619
    lat: 5.184
-
    station: ADJADON
    lon: -5.176
    lat: 5.1271
-
    station: ADJAKOU KONAN
    lon: -4.6999
    lat: 6.7704
-
    station: ADJAME
    lon: -3.511
    lat: 6.28
-
    station: ADJAME BINGER
    lon: -3.8648
    lat: 5.3433
-
    station: ADJAMENE
    lon: -6.8355
    lat: 4.7634
-
    station: ADJEBO
    lon: -4.814
    lat: 7.3024
-
    station: ADJEHIBANGO
    lon: -3.1494
    lat: 7.9565
-
    station: ADJEHILILIE
    lon: -5.4849
    lat: 6.0652
-
    station: ADJEKRO
    lon: -3.6895
    lat: 7.0697
-
    station: ADJIN
    lon: -3.8546
    lat: 5.3957
-
    station: ADJIN-TELEGRA
    lon: -3.8409
    lat: 5.4158
-
    station: ADJINA
    lon: -3.2314
    lat: 7.9035
-
    station: ADJO-BLESSOU
    lon: -5.3495
    lat: 7.493
-
    station: ADJONOU
    lon: -5.2504
    lat: 7.7568
-
    station: ADJOUAN
    lon: -3.151
    lat: 5.3071
-
    station: ADJOUASSOU
    lon: -5.0985
    lat: 7.4747
-
    station: ADJOUGOUANSSO
    lon: -5.2796
    lat: 7.5528
-
    station: ADJOUMANIBANG
    lon: -3.3719
    lat: 7.7008
-
    station: ADJOUMANIKRO
    lon: -3.3245
    lat: 6.652
-
    station: ADJUE
    lon: -4.5489
    lat: 5.1857
-
    station: ADOHOUSSOU
    lon: -5.3923
    lat: 8.0211
-
    station: ADOMOKRO
    lon: -4.4017
    lat: 6.0726
-
    station: ADONIKRO
    lon: -3.5673
    lat: 6.723
-
    station: ADONKOI
    lon: -3.7832
    lat: 6.0097
-
    station: ADOSSO
    lon: -3.5303
    lat: 5.359
-
    station: ADOU KOFFIKRO
    lon: -3.4614
    lat: 6.6945
-
    station: ADOUAKOUAKRO
    lon: -4.4285
    lat: 6.6042
-
    station: ADOUKRO
    lon: -3.4207
    lat: 7.4372
-
    station: ADOUMANGAN
    lon: -4.3857
    lat: 5.2035
-
    station: ADOUMANIKRO
    lon: -4.6631
    lat: 6.8566
-
    station: ADZOPE
    lon: -3.8704
    lat: 6.1112
-
    station: AEROKRO
    lon: -4.5399
    lat: 6.9893
-
    station: AFALIKRO
    lon: -3.3836
    lat: 6.6448
-
    station: AFFERE 1
    lon: -4.085
    lat: 6.9009
-
    station: AFFERE 2
    lon: -4.0766
    lat: 6.905
-
    station: AFFERIKRO
    lon: -5.1939
    lat: 7.6522
-
    station: AFFERY
    lon: -3.9584
    lat: 6.3186
-
    station: AFFERY
    lon: -3.5198
    lat: 7.7479
-
    station: AFFIENOU
    lon: -2.9257
    lat: 5.4088
-
    station: AFFORENOU-POS
    lon: -3.1279
    lat: 5.1086
-
    station: AFFOTOBO
    lon: -5.4684
    lat: 7.6707
-
    station: AFFOTOBO
    lon: -5.0191
    lat: 6.6604
-
    station: AFFOUAVAM
    lon: -2.8964
    lat: 7.9967
-
    station: AFFOUE KOKORE
    lon: -4.9911
    lat: 7.2001
-
    station: AFFOUEKRO
    lon: -4.9305
    lat: 7.756
-
    station: AFFOUNVASSOU
    lon: -4.9657
    lat: 7.8602
-
    station: AFFOUVASSO
    lon: -3.8738
    lat: 7.6505
-
    station: AFOKRO
    lon: -5.0038
    lat: 6.6693
-
    station: AGBA BAYASSOU
    lon: -4.2686
    lat: 7.1161
-
    station: AGBA DJOUKOUK
    lon: -5.5212
    lat: 7.9069
-
    station: AGBA KOUASSIK
    lon: -5.4625
    lat: 7.9395
-
    station: AGBAILLE
    lon: -4.5166
    lat: 5.2988
-
    station: AGBAKRO
    lon: -5.1815
    lat: 7.7331
-
    station: AGBAKRO
    lon: -4.8198
    lat: 7.5367
-
    station: AGBANAN YAKRO
    lon: -4.4082
    lat: 6.8458
-
    station: AGBANGNASSOU
    lon: -5.0051
    lat: 7.6215
-
    station: AGBANHANSI
    lon: -5.4482
    lat: 8.0311
-
    station: AGBANIASSOU
    lon: -5.0182
    lat: 6.5883
-
    station: AGBANIKRO
    lon: -4.6281
    lat: 7.3688
-
    station: AGBANNOUAN
    lon: -5.2084
    lat: 7.5216
-
    station: AGBANOU
    lon: -5.4118
    lat: 7.813
-
    station: AGBANOU
    lon: -5.2813
    lat: 7.4693
-
    station: AGBANOU MANGO
    lon: -5.3931
    lat: 7.7836
-
    station: AGBAOU
    lon: -3.8579
    lat: 6.3512
-
    station: AGBAOU
    lon: -5.2145
    lat: 6.0804
-
    station: AGBAOU
    lon: -5.7798
    lat: 7.7473
-
    station: AGBOSSOU
    lon: -4.0851
    lat: 6.8618
-
    station: AGBOVILLE
    lon: -4.2176
    lat: 5.929
-
    station: AGNANFOUTOU
    lon: -3.2485
    lat: 7.2007
-
    station: AGNEBY
    lon: -4.3417
    lat: 5.3241
-
    station: AGNERE KOFFIK
    lon: -4.9169
    lat: 6.8055
-
    station: AGNI-ASSIKASS
    lon: -4.0675
    lat: 7.1091
-
    station: AGNIA
    lon: -4.4901
    lat: 6.502
-
    station: AGNIBILEKROU
    lon: -3.2005
    lat: 7.1282
-
    station: AGNIMANGBO
    lon: -4.5794
    lat: 5.4701
-
    station: AGOKRO
    lon: -5.3172
    lat: 7.5674
-
    station: AGONASSOU
    lon: -5.6086
    lat: 7.5107
-
    station: AGOU
    lon: -3.9444
    lat: 5.9803
-
    station: AGOUA
    lon: -4.0578
    lat: 6.88
-
    station: AGOUA
    lon: -4.4721
    lat: 6.4894
-
    station: AGOUA KONGOKR
    lon: -4.8998
    lat: 7.5751
-
    station: AGOUAHIN
    lon: -4.1293
    lat: 5.9812
-
    station: AGRO KOUADIOK
    lon: -4.8084
    lat: 7.2213
-
    station: AGUIBRI
    lon: -5.2493
    lat: 7.0652
-
    station: AHALI KOLIA N
    lon: -4.3961
    lat: 7.0306
-
    station: AHEOUA
    lon: -3.8654
    lat: 6.3613
-
    station: AHEREMOU 1
    lon: -4.9295
    lat: 6.2572
-
    station: AHEREMOU 2
    lon: -4.9269
    lat: 6.2281
-
    station: AHIBANGO
    lon: -3.2568
    lat: 7.8328
-
    station: AHIGBE KOFFIK
    lon: -3.3801
    lat: 5.4022
-
    station: AHINIKRO
    lon: -3.6437
    lat: 6.5243
-
    station: AHIROA
    lon: -4.639
    lat: 6.1733
-
    station: AHIZABRE
    lon: -6.1056
    lat: 6.0658
-
    station: AHOKOI
    lon: -3.8496
    lat: 6.0408
-
    station: AHOKOKRO
    lon: -5.4522
    lat: 7.8054
-
    station: AHOKOKRO
    lon: -4.8777
    lat: 7.6496
-
    station: AHONDO
    lon: -5.1534
    lat: 6.2821
-
    station: AHOROSSO
    lon: -4.2069
    lat: 6.6789
-
    station: AHOSSI TAKIKR
    lon: -5.0413
    lat: 7.8866
-
    station: AHOUABO
    lon: -3.793
    lat: 6.2399
-
    station: AHOUAKRO
    lon: -4.8741
    lat: 6.1291
-
    station: AHOUANOU
    lon: -4.8601
    lat: 5.5062
-
    station: AHOUANOU 1
    lon: -4.6656
    lat: 6.3939
-
    station: AHOUANOU 2
    lon: -4.6312
    lat: 6.5188
-
    station: AHOUANOU2
    lon: -5.1097
    lat: 5.9108
-
    station: AHOUATI
    lon: -5.1652
    lat: 5.8784
-
    station: AHOUATI
    lon: -4.97
    lat: 6.1113
-
    station: AHOUE
    lon: -3.9419
    lat: 5.4973
-
    station: AHOUEKRO
    lon: -5.2185
    lat: 6.4945
-
    station: AHOUGNAFOUTOU
    lon: -5.3251
    lat: 7.688
-
    station: AHOUGNANFOUTO
    lon: -4.8811
    lat: 5.5673
-
    station: AHOUGNANOU
    lon: -4.9253
    lat: 7.1969
-
    station: AHOUGNASSOU N
    lon: -5.059
    lat: 7.1713
-
    station: AHOUGNASSOU N
    lon: -5.0628
    lat: 7.1662
-
    station: AHOUMOUAN KOU
    lon: -5.0077
    lat: 7.2312
-
    station: AHOUNAN
    lon: -4.3537
    lat: 6.4875
-
    station: AHOUNIANSSOU
    lon: -4.8814
    lat: 5.3279
-
    station: AHOUNIASSOU
    lon: -4.7615
    lat: 6.6476
-
    station: AHOUNZANKRO
    lon: -4.7674
    lat: 7.7347
-
    station: AHOUNZE KOUAD
    lon: -5.4006
    lat: 7.758
-
    station: AHOUTOUE
    lon: -3.8057
    lat: 5.4743
-
    station: AHOUYA
    lon: -4.5059
    lat: 5.4705
-
    station: AHOUZANKRO
    lon: -4.655
    lat: 7.2652
-
    station: AHUA
    lon: -4.4229
    lat: 5.1987
-
    station: AHUA
    lon: -4.8155
    lat: 5.7938
-
    station: AHUA
    lon: -4.6706
    lat: 6.659
-
    station: AHUIKOI
    lon: -3.722
    lat: 6.165
-
    station: AHUITIESSO
    lon: -2.9876
    lat: 7.5512
-
    station: AKA AHOUSSIKR
    lon: -4.2179
    lat: 6.9018
-
    station: AKA KOUAMEKRO
    lon: -4.7794
    lat: 7.271
-
    station: 'AKA N''GUESSAN'
    lon: -5.7643
    lat: 7.1468
-
    station: AKA-COMOEKRO
    lon: -3.3554
    lat: 6.176
-
    station: AKA-KOMOEKRO
    lon: -3.526
    lat: 7.4449
-
    station: AKA-YAOKRO
    lon: -5.0024
    lat: 6.7633
-
    station: AKADIAFOUE
    lon: -5.5288
    lat: 7.6127
-
    station: AKAFOU
    lon: -4.3866
    lat: 7.6376
-
    station: AKAFOUKRO
    lon: -4.9504
    lat: 7.3569
-
    station: AKAKOFFIKRO
    lon: -5.4724
    lat: 7.8966
-
    station: AKAKOUABENANK
    lon: -3.0386
    lat: 7.1878
-
    station: AKAKRO
    lon: -4.5112
    lat: 5.479
-
    station: AKAKRO
    lon: -3.0563
    lat: 5.3193
-
    station: AKAKRO
    lon: -5.562
    lat: 7.0183
-
    station: AKAKRO
    lon: -5.0141
    lat: 7.826
-
    station: AKAKRO
    lon: -4.4748
    lat: 7.7481
-
    station: AKAKRO
    lon: -4.2345
    lat: 6.6099
-
    station: AKAKRO
    lon: -5.9664
    lat: 5.0853
-
    station: 'AKAKRO N''GBAN'
    lon: -5.1119
    lat: 6.639
-
    station: 'AKAKRO N''ZIPR'
    lon: -4.9262
    lat: 6.3185
-
    station: AKALEKRO
    lon: -4.8249
    lat: 5.607
-
    station: AKANANGBO
    lon: -3.8861
    lat: 7.5484
-
    station: AKANDJE
    lon: -3.8759
    lat: 5.4056
-
    station: AKANKRO
    lon: -6.4814
    lat: 7.3344
-
    station: AKANZA KOUADJ
    lon: -4.681
    lat: 7.4122
-
    station: AKANZAKRO
    lon: -5.1006
    lat: 7.626
-
    station: AKANZAKRO
    lon: -5.2299
    lat: 7.5527
-
    station: AKAOUA
    lon: -4.995
    lat: 7.5311
-
    station: AKASSO
    lon: -3.2056
    lat: 7.2543
-
    station: AKAYAO
    lon: -3.3786
    lat: 7.6972
-
    station: AKAYAOKRO
    lon: -5.5084
    lat: 7.7134
-
    station: AKAZALILIE
    lon: -5.4692
    lat: 5.9656
-
    station: AKE BEFIAT
    lon: -4.1735
    lat: 5.6603
-
    station: AKE-DOUANIER
    lon: -4.4319
    lat: 6.1004
-
    station: AKEIKOI
    lon: -4.0176
    lat: 5.4207
-
    station: AKEKOI
    lon: -3.8807
    lat: 5.4954
-
    station: AKESSEMOSSOU
    lon: -4.704
    lat: 6.6223
-
    station: AKETE-DIABO
    lon: -5.3764
    lat: 7.5258
-
    station: AKIMOU-YAOKRO
    lon: -5.1074
    lat: 6.9123
-
    station: AKISSOKRO
    lon: -4.4037
    lat: 7.1632
-
    station: AKOBAKABO
    lon: -4.4188
    lat: 6.7048
-
    station: AKOBOISSUE
    lon: -3.2321
    lat: 6.9679
-
    station: 'AKOI-N''DENOU'
    lon: -5.069
    lat: 7.2371
-
    station: AKOKOKRO
    lon: -5.2356
    lat: 7.7698
-
    station: AKORABLEKRO
    lon: -3.8413
    lat: 7.629
-
    station: AKOSSUAM
    lon: -2.9757
    lat: 7.5709
-
    station: AKOTIAKRO
    lon: -4.5882
    lat: 7.3594
-
    station: AKOUAKRO
    lon: -3.513
    lat: 6.7752
-
    station: AKOUDIE
    lon: -4.823
    lat: 5.8076
-
    station: AKOUE KOUADIO
    lon: -5.016
    lat: 6.6287
-
    station: AKOUE-AGBAN
    lon: -3.8519
    lat: 5.311
-
    station: AKOUE-SANTE
    lon: -3.89
    lat: 5.3658
-
    station: AKOUEDO-ATTIE
    lon: -3.919
    lat: 5.3587
-
    station: AKOUMIAKRO SA
    lon: -5.5776
    lat: 7.8738
-
    station: AKOUMOUA DJEK
    lon: -4.9556
    lat: 7.6267
-
    station: AKOUNGOU
    lon: -4.7858
    lat: 5.6648
-
    station: AKOUNOUGBE
    lon: -3.1787
    lat: 5.1815
-
    station: AKOUPE
    lon: -4.1563
    lat: 5.4766
-
    station: AKOUPE
    lon: -3.8891
    lat: 6.3856
-
    station: AKOURE
    lon: -3.7514
    lat: 5.377
-
    station: AKOWUEBO OU T
    lon: -5.8709
    lat: 6.935
-
    station: AKOYATE
    lon: -3.8464
    lat: 5.3873
-
    station: AKPANGNE
    lon: -3.1397
    lat: 5.109
-
    station: AKPASSANOU
    lon: -4.4505
    lat: 7.3549
-
    station: AKPATOUFOUE
    lon: -4.6163
    lat: 7.2424
-
    station: AKPATOUKRO
    lon: -4.9126
    lat: 7.8111
-
    station: AKPESSE
    lon: -4.9527
    lat: 7.5728
-
    station: AKPESSEKRO
    lon: -5.3045
    lat: 6.7267
-
    station: AKPIBO
    lon: -4.4331
    lat: 6.4521
-
    station: AKPLA ASSOUMA
    lon: -5.0226
    lat: 7.8445
-
    station: AKPOKRO
    lon: -5.0543
    lat: 7.8622
-
    station: AKPOKRO
    lon: -5.1938
    lat: 7.6031
-
    station: AKPOKRO
    lon: -3.4755
    lat: 7.1148
-
    station: AKPOUE BOUE
    lon: -4.1433
    lat: 7.4412
-
    station: AKPROABO
    lon: -5.3163
    lat: 7.6432
-
    station: AKRADIO
    lon: -4.3601
    lat: 5.4339
-
    station: AKRASSIKRO
    lon: -3.2906
    lat: 7.6567
-
    station: AKREBY
    lon: -3.3864
    lat: 6.14
-
    station: AKRESSI
    lon: -3.0791
    lat: 5.6667
-
    station: AKRETIA
    lon: -5.2832
    lat: 7.2669
-
    station: AKRIDOU-LADDE
    lon: -5.6041
    lat: 5.6248
-
    station: AKRIFOUKRO
    lon: -4.3488
    lat: 7.483
-
    station: AKROABA BENIE
    lon: -3.5064
    lat: 5.3967
-
    station: AKROABA-AKOUD
    lon: -3.5075
    lat: 5.4176
-
    station: AKROMIABLA
    lon: -3.3356
    lat: 5.2975
-
    station: AKROU
    lon: -4.356
    lat: 5.2061
-
    station: AKROU KOUADIO
    lon: -4.7314
    lat: 7.9461
-
    station: AKROUFLA
    lon: -5.4968
    lat: 6.3364
-
    station: AKROUGBANGBOK
    lon: -4.833
    lat: 7.6666
-
    station: AKROUKRO
    lon: -5.2653
    lat: 6.5402
-
    station: AKUNVIKRO
    lon: -4.8544
    lat: 6.55
-
    station: ALAMANDYOUGOU
    lon: -5.1308
    lat: 9.4482
-
    station: ALE-PLI
    lon: -5.1251
    lat: 7.5637
-
    station: ALEKEDON
    lon: -5.3212
    lat: 5.1161
-
    station: ALEPE
    lon: -3.6627
    lat: 5.5021
-
    station: ALIALIKRO
    lon: -5.0393
    lat: 7.3851
-
    station: ALIBOUGOU
    lon: -3.0544
    lat: 9.576
-
    station: ALIKRO
    lon: -6.0296
    lat: 5.3872
-
    station: ALLABA
    lon: -4.3477
    lat: 5.2835
-
    station: ALLAHA KOFFIK
    lon: -5.1101
    lat: 7.1967
-
    station: ALLAHIN
    lon: -4.1954
    lat: 5.6302
-
    station: ALLAHOU
    lon: -5.0348
    lat: 7.1397
-
    station: ALLAHOU KOFFI
    lon: -5.0313
    lat: 7.1506
-
    station: ALLAHOU-BAZI
    lon: -5.5349
    lat: 7.0339
-
    station: ALLAI-YAOKRO
    lon: -5.4963
    lat: 6.9661
-
    station: ALLAKRO
    lon: -2.8927
    lat: 5.2928
-
    station: ALLAKRO
    lon: -5.3118
    lat: 8.0323
-
    station: ALLAKRO
    lon: -4.5485
    lat: 6.3293
-
    station: ALLANGBAKONAN
    lon: -5.7642
    lat: 6.9438
-
    station: ALLANGOUA
    lon: -5.2034
    lat: 6.8818
-
    station: ALLANGOUANOU
    lon: -2.9419
    lat: 5.1522
-
    station: ALLANGOUASSOU
    lon: -4.5978
    lat: 7.5124
-
    station: ALLANIKRO
    lon: -4.8676
    lat: 7.3336
-
    station: ALLANIKRO
    lon: -3.1938
    lat: 8.6915
-
    station: ALLASSO
    lon: -5.528
    lat: 8.8177
-
    station: ALLATISSIBO
    lon: -5.5216
    lat: 7.7819
-
    station: ALLEKRAN
    lon: -5.5997
    lat: 6.9189
-
    station: ALLEKRO
    lon: -5.5312
    lat: 7.9563
-
    station: ALLEY
    lon: -5.5095
    lat: 6.9739
-
    station: ALLIEKRO
    lon: -4.417
    lat: 5.4422
-
    station: ALLIEKRO
    lon: -3.2078
    lat: 5.3601
-
    station: ALLOKO KOFFIK
    lon: -4.4356
    lat: 7.2727
-
    station: ALLOKO SAKASS
    lon: -5.3808
    lat: 7.7827
-
    station: ALLOKO YAOKRO
    lon: -5.0824
    lat: 7.7821
-
    station: ALLOKO-DJEKRO
    lon: -5.2608
    lat: 7.35
-
    station: ALLOKOKRO
    lon: -5.0836
    lat: 7.7263
-
    station: ALLOKOKRO
    lon: -4.0748
    lat: 7.1469
-
    station: ALLOKOKRO
    lon: -4.5056
    lat: 6.88
-
    station: ALLOKOKRO
    lon: -4.8468
    lat: 7.183
-
    station: ALLOMABO
    lon: -4.8891
    lat: 7.7708
-
    station: ALLOMANOU AHA
    lon: -4.8382
    lat: 7.9667
-
    station: ALLONGO
    lon: -4.4697
    lat: 6.3796
-
    station: ALLOU-KOUASSU
    lon: -2.9888
    lat: 7.1919
-
    station: ALLOUBOTI
    lon: -5.2493
    lat: 7.5862
-
    station: ALLOUKRO
    lon: -4.7998
    lat: 7.7841
-
    station: ALLOUKRO
    lon: -5.3005
    lat: 7.4507
-
    station: ALLUMINAKRO
    lon: -5.0716
    lat: 6.3897
-
    station: ALLUNAMOUENOU
    lon: -3.8012
    lat: 7.5231
-
    station: ALLUSSOU
    lon: -3.796
    lat: 7.6091
-
    station: ALOKO KOUAKOU
    lon: -4.4357
    lat: 6.8085
-
    station: ALOKOKRO
    lon: -5.4385
    lat: 8.0787
-
    station: ALOSSO 1
    lon: -3.5408
    lat: 5.658
-
    station: ALOSSO 2
    lon: -3.4998
    lat: 5.5652
-
    station: ALOUGBELI KOU
    lon: -4.6182
    lat: 6.7579
-
    station: AMAN POKOUKRO
    lon: -4.7721
    lat: 6.9401
-
    station: AMAN SALEKRO
    lon: -5.5801
    lat: 7.2285
-
    station: AMANGBEU
    lon: -4.37
    lat: 6.0189
-
    station: AMANGOUAKRO
    lon: -3.7689
    lat: 6.8695
-
    station: AMANGOUAKRO-E
    lon: -3.6939
    lat: 6.9687
-
    station: AMANI MENOU
    lon: -4.9846
    lat: 6.0853
-
    station: AMANIKRO
    lon: -3.3859
    lat: 5.4207
-
    station: AMANIKRO
    lon: -4.6091
    lat: 6.2036
-
    station: AMANIKRO
    lon: -5.0846
    lat: 7.7354
-
    station: AMANIKRO
    lon: -4.919
    lat: 7.8767
-
    station: AMANIKRO
    lon: -4.059
    lat: 7.3754
-
    station: AMANIKRO
    lon: -3.6883
    lat: 6.9681
-
    station: AMANIKRO
    lon: -4.6502
    lat: 6.9861
-
    station: AMANKRO
    lon: -3.9926
    lat: 7.4208
-
    station: AMANVI
    lon: -3.1383
    lat: 7.9656
-
    station: AMANZI
    lon: -5.3264
    lat: 7.2193
-
    station: AMAPO KOUASSI
    lon: -3.7204
    lat: 7.7139
-
    station: AMATA
    lon: -2.9839
    lat: 7.8361
-
    station: AMELEKIA
    lon: -3.5832
    lat: 6.8301
-
    station: AMENDI
    lon: -3.5513
    lat: 9.7284
-
    station: 'AMESSAN N''GUE'
    lon: -4.8484
    lat: 5.1451
-
    station: AMIAKRO
    lon: -3.4323
    lat: 6.6575
-
    station: AMIAN KOUASSI
    lon: -3.6398
    lat: 6.469
-
    station: AMIENKRO
    lon: -4.9431
    lat: 7.1342
-
    station: AMODI
    lon: -3.0695
    lat: 8.1343
-
    station: AMOIKRO
    lon: -3.1676
    lat: 5.5418
-
    station: AMOIKRO
    lon: -4.666
    lat: 6.4073
-
    station: AMON KOBENANK
    lon: -2.9975
    lat: 7.7081
-
    station: AMONKRO
    lon: -4.2358
    lat: 6.5953
-
    station: AMONKRO
    lon: -5.0348
    lat: 7.0788
-
    station: AMORIAKRO
    lon: -3.5208
    lat: 7.0963
-
    station: AMOROFIKRO
    lon: -3.1476
    lat: 7.5997
-
    station: AMOROKI
    lon: -4.1613
    lat: 7.0885
-
    station: AMOUAKONKRO
    lon: -3.6253
    lat: 7.121
-
    station: AMOUATENE
    lon: -3.0849
    lat: 8.0975
-
    station: AMPOUNOU
    lon: -3.0325
    lat: 8.2123
-
    station: ANAGAMANKRO
    lon: -4.6201
    lat: 8.0311
-
    station: ANANDA KOUADI
    lon: -4.256
    lat: 7.2812
-
    station: ANANDA KOUASS
    lon: -4.2423
    lat: 7.2843
-
    station: ANANGUIE
    lon: -3.7742
    lat: 6.2194
-
    station: ANANGUIE
    lon: -4.4715
    lat: 6.0702
-
    station: ANCIEN DJEBON
    lon: -5.0887
    lat: 7.506
-
    station: ANCIEN FRESCO
    lon: -5.5572
    lat: 5.0577
-
    station: ANCIEN PROZI
    lon: -6.9684
    lat: 7.6624
-
    station: ANDE
    lon: -3.9518
    lat: 6.0466
-
    station: ANDE
    lon: -4.0873
    lat: 6.781
-
    station: ANDIANOU
    lon: -4.4744
    lat: 7.0204
-
    station: ANDIANOU
    lon: -4.6406
    lat: 6.7066
-
    station: ANDJE
    lon: -2.9447
    lat: 5.1395
-
    station: ANDO
    lon: -5.5793
    lat: 7.5092
-
    station: ANDOBO-ALLUIB
    lon: -5.2992
    lat: 7.4069
-
    station: ANDOBO-KPANGB
    lon: -5.2873
    lat: 7.4187
-
    station: ANDOFFOUE-BON
    lon: -5.2394
    lat: 7.3815
-
    station: ANDOKOI KOUAM
    lon: -4.874
    lat: 7.2917
-
    station: ANDOKRO
    lon: -5.0456
    lat: 7.7693
-
    station: ANDOKRO
    lon: -5.3133
    lat: 7.661
-
    station: 'ANDOU M''BATTO'
    lon: -3.6615
    lat: 5.4087
-
    station: ANEKOUADIOKRO
    lon: -3.7143
    lat: 6.6442
-
    station: ANEKRO
    lon: -4.1124
    lat: 6.7481
-
    station: ANEYKRO
    lon: -3.3111
    lat: 6.2154
-
    station: ANGA
    lon: -3.2895
    lat: 5.2109
-
    station: ANGAI
    lon: -3.2873
    lat: 9.5894
-
    station: ANGAMANKRO
    lon: -4.005
    lat: 7.3684
-
    station: ANGAMANKRO
    lon: -5.1748
    lat: 7.4986
-
    station: ANGAMANKRO
    lon: -4.4432
    lat: 6.489
-
    station: ANGAMBLE KONA
    lon: -5.1014
    lat: 7.6779
-
    station: ANGANKRO
    lon: -5.0589
    lat: 7.785
-
    station: ANGANKRO
    lon: -4.8928
    lat: 7.5093
-
    station: ANGBANOU
    lon: -4.4865
    lat: 6.2988
-
    station: ANGBAVIA
    lon: -5.0198
    lat: 6.3908
-
    station: ANGBOUDJOU
    lon: -3.2101
    lat: 5.1487
-
    station: ANGO
    lon: -4.2421
    lat: 5.942
-
    station: ANGOBILA
    lon: -3.5638
    lat: 8.4703
-
    station: ANGODA
    lon: -5.0226
    lat: 6.6742
-
    station: ANGOKOUN GBAN
    lon: -5.2359
    lat: 7.6312
-
    station: ANGOLOKAHA
    lon: -5.1708
    lat: 8.5189
-
    station: ANGORAN
    lon: -3.8976
    lat: 5.4122
-
    station: ANGOSSE
    lon: -5.3453
    lat: 7.329
-
    station: ANGOSSE
    lon: -5.4368
    lat: 6.966
-
    station: ANGOUA KOUADI
    lon: -3.1354
    lat: 7.3164
-
    station: ANGOUA YAOKRO
    lon: -5.2299
    lat: 7.6962
-
    station: ANGOUAKOUKRO
    lon: -4.8562
    lat: 6.7214
-
    station: ANGOUAKRO
    lon: -5.4258
    lat: 8.008
-
    station: ANGOUAKRO
    lon: -3.3558
    lat: 6.6431
-
    station: ANGOUAKRO
    lon: -3.8933
    lat: 7.2136
-
    station: ANGOVIA
    lon: -5.541
    lat: 7.0341
-
    station: ANIALESSOU
    lon: -4.3201
    lat: 6.5242
-
    station: ANIASSUE
    lon: -3.6833
    lat: 6.6564
-
    station: ANIKRO
    lon: -5.1039
    lat: 6.6308
-
    station: ANKO PRIKRO
    lon: -4.9838
    lat: 7.7908
-
    station: ANKOROMI (TOL
    lon: -3.0373
    lat: 9.2818
-
    station: ANNA
    lon: -3.8759
    lat: 5.3261
-
    station: ANNEPE
    lon: -3.775
    lat: 5.9024
-
    station: ANNO
    lon: -4.3802
    lat: 5.8595
-
    station: ANO-DOUGBA
    lon: -5.3423
    lat: 7.2728
-
    station: ANO-SIMBO
    lon: -5.3588
    lat: 7.2925
-
    station: ANO-ZUME
    lon: -5.3642
    lat: 7.289
-
    station: ANOBLEKRO
    lon: -5.3326
    lat: 7.2735
-
    station: ANOKIKRO
    lon: -3.3695
    lat: 7.5769
-
    station: ANOUBLE-KOUAM
    lon: -5.2804
    lat: 7.5803
-
    station: ANOUGBAKRO
    lon: -3.7451
    lat: 6.9622
-
    station: ANOUMABA
    lon: -4.5165
    lat: 6.3406
-
    station: ANOUMABO
    lon: -3.9506
    lat: 7.0915
-
    station: ANOUMABOU
    lon: -5.115
    lat: 5.6137
-
    station: ANOUMANGOUA
    lon: -5.2248
    lat: 6.7064
-
    station: ANOUZE OKABO
    lon: -4.8483
    lat: 7.0004
-
    station: ANSORPE
    lon: -3.4338
    lat: 9.5357
-
    station: ANUANUA
    lon: -3.5564
    lat: 6.7249
-
    station: ANVEYO
    lon: -3.4954
    lat: 8.5346
-
    station: ANYAMA
    lon: -4.0514
    lat: 5.4898
-
    station: ANYAMA DEBARC
    lon: -3.9381
    lat: 5.4377
-
    station: ANYAMA-ADJAME
    lon: -4.0279
    lat: 5.4868
-
    station: ANYAMA-AHOUAB
    lon: -4.0267
    lat: 5.5002
-
    station: ANYANOU
    lon: -3.7561
    lat: 7.6852
-
    station: ANZAN-KOUAMEK
    lon: -3.9189
    lat: 7.4764
-
    station: ANZANDOUGOU
    lon: -4.2706
    lat: 7.7769
-
    station: ANZE-ASSAHOUN
    lon: -3.1861
    lat: 5.116
-
    station: ANZIANKRO
    lon: -3.5633
    lat: 7.0872
-
    station: AOBE
    lon: -5.1902
    lat: 7.4551
-
    station: AOUAHIKRO
    lon: -3.951
    lat: 8.3028
-
    station: AOUAN BOFOINS
    lon: -3.6658
    lat: 7.5193
-
    station: AOUAN KOMOE N
    lon: -3.63
    lat: 7.572
-
    station: AOUE-BROUKRO
    lon: -5.2177
    lat: 7.3706
-
    station: AOUE-KANSI
    lon: -5.2119
    lat: 7.3664
-
    station: AOUE-ZISSIESS
    lon: -5.2241
    lat: 7.395
-
    station: AOUGNANSOU
    lon: -5.3795
    lat: 7.4687
-
    station: AOULIKRO
    lon: -5.4398
    lat: 8.0027
-
    station: AOUMA BROUKRO
    lon: -4.4201
    lat: 7.8103
-
    station: AOUNDJO
    lon: -5.3789
    lat: 7.4705
-
    station: AOUNIASSOU
    lon: -5.084
    lat: 7.4311
-
    station: AOUNIENFOUTOU
    lon: -4.3753
    lat: 6.7827
-
    station: AOUSSI DOSSAN
    lon: -4.5529
    lat: 7.5062
-
    station: APANGOKRO
    lon: -5.0185
    lat: 6.9335
-
    station: APIADJI
    lon: -3.8397
    lat: 5.9473
-
    station: APOUEBA
    lon: -3.4209
    lat: 6.5382
-
    station: APOUIBO
    lon: -5.0382
    lat: 7.4988
-
    station: APPARAGRA
    lon: -5.1474
    lat: 6.1424
-
    station: APPIAKRO
    lon: -5.2415
    lat: 7.6245
-
    station: APPIAKRO GARE
    lon: -4.5265
    lat: 6.3198
-
    station: APPIMNOUM
    lon: -2.8712
    lat: 7.8939
-
    station: APPOBINOU
    lon: -5.4824
    lat: 7.8391
-
    station: APPOUASSO
    lon: -3.1754
    lat: 5.9583
-
    station: APPOUESSOU
    lon: -3.4287
    lat: 6.5487
-
    station: APPROMPRON
    lon: -3.3187
    lat: 6.2954
-
    station: APPROMPRONOU
    lon: -3.3615
    lat: 6.998
-
    station: ARIKOKAHA
    lon: -5.1972
    lat: 8.7859
-
    station: ARMEBE
    lon: -4.3392
    lat: 5.3464
-
    station: AROBO
    lon: -3.8558
    lat: 6.8929
-
    station: AROKPA
    lon: -5.9973
    lat: 4.981
-
    station: ARRAGUIE
    lon: -4.1488
    lat: 6.0097
-
    station: ARRAH
    lon: -3.9695
    lat: 6.6726
-
    station: ARROSUA
    lon: -3.0606
    lat: 7.4035
-
    station: ASIELIBROUKRO
    lon: -5.074
    lat: 7.4413
-
    station: ASSA KOKORO
    lon: -4.3519
    lat: 7.0937
-
    station: ASSA-KOMOEKRO
    lon: -3.6542
    lat: 7.1558
-
    station: ASSABLI KOMEN
    lon: -4.2136
    lat: 7.2916
-
    station: ASSABONOU
    lon: -5.1065
    lat: 7.2643
-
    station: ASSABOU-KOUAS
    lon: -5.3097
    lat: 7.5414
-
    station: ASSABOU-KPAND
    lon: -5.3095
    lat: 7.5512
-
    station: ASSABOU-TCHED
    lon: -5.3133
    lat: 7.5379
-
    station: ASSADEINKRO
    lon: -4.3561
    lat: 6.8439
-
    station: ASSAFOU
    lon: -5.0531
    lat: 6.7307
-
    station: ASSAFOU
    lon: -3.2244
    lat: 7.6881
-
    station: ASSAFOU-NZENG
    lon: -5.3163
    lat: 7.4166
-
    station: ASSAHARA
    lon: -4.5007
    lat: 6.6671
-
    station: ASSAKOUASSIKR
    lon: -5.2069
    lat: 7.6464
-
    station: ASSAKRA
    lon: -5.46
    lat: 7.6943
-
    station: ASSAKRA
    lon: -4.8942
    lat: 6.3937
-
    station: ASSAKRO
    lon: -5.5625
    lat: 7.8859
-
    station: ASSAKRO
    lon: -3.6317
    lat: 6.5799
-
    station: ASSALE-KOUASS
    lon: -3.8996
    lat: 6.9626
-
    station: ASSALEKRO
    lon: -4.4176
    lat: 6.5535
-
    station: ASSALEKRO
    lon: -4.1754
    lat: 7.2856
-
    station: ASSAMABO
    lon: -5.6113
    lat: 7.4306
-
    station: ASSAMOIKRO
    lon: -5.2004
    lat: 7.5649
-
    station: ASSAMOIKRO
    lon: -4.7177
    lat: 6.8262
-
    station: ASSAMOIKRO
    lon: -4.9892
    lat: 6.948
-
    station: ASSAMOIKRO
    lon: -6.9847
    lat: 6.3455
-
    station: ASSAN KOUADIO
    lon: -5.0492
    lat: 7.8232
-
    station: ASSANDRE
    lon: -5.0073
    lat: 7.5637
-
    station: ASSANDRE
    lon: -5.3898
    lat: 7.3774
-
    station: ASSANDREKRO
    lon: -4.6904
    lat: 7.9844
-
    station: ASSANGBADJI
    lon: -3.8769
    lat: 6.4062
-
    station: ASSANKRO
    lon: -5.0172
    lat: 7.335
-
    station: ASSANOU
    lon: -5.1613
    lat: 6.991
-
    station: ASSAOUFOUE
    lon: -4.2233
    lat: 6.5766
-
    station: ASSE BLENDOUK
    lon: -4.9868
    lat: 7.3884
-
    station: ASSE DJEKRO
    lon: -4.9587
    lat: 7.1578
-
    station: ASSE MBO
    lon: -5.0045
    lat: 7.1698
-
    station: ASSE NGATTAKR
    lon: -5.0955
    lat: 7.0582
-
    station: ASSE NGOU
    lon: -5.0336
    lat: 7.2084
-
    station: ASSE-KOUAMEKR
    lon: -5.1647
    lat: 6.388
-
    station: ASSE-MAFIA
    lon: -3.4688
    lat: 5.3272
-
    station: ASSEBROKRO
    lon: -4.8481
    lat: 6.664
-
    station: ASSEKANKRO
    lon: -4.62
    lat: 7.6652
-
    station: ASSEKRO
    lon: -5.4183
    lat: 7.6789
-
    station: ASSEKRO
    lon: -5.45
    lat: 7.755
-
    station: ASSEKRO
    lon: -5.2472
    lat: 7.7863
-
    station: ASSEKRO
    lon: -3.4169
    lat: 6.6654
-
    station: ASSEKRO
    lon: -4.5966
    lat: 7.3687
-
    station: ASSEMANOU
    lon: -3.7558
    lat: 6.7874
-
    station: ASSEMIAKRO
    lon: -4.4228
    lat: 6.5947
-
    station: ASSEMON BLAKR
    lon: -4.9378
    lat: 7.5958
-
    station: ASSEMPA NAYE
    lon: -3.3038
    lat: 7.2133
-
    station: ASSEMPANAYE
    lon: -3.2896
    lat: 7.3414
-
    station: ASSENGOU
    lon: -5.5293
    lat: 7.6681
-
    station: ASSENGOU
    lon: -5.0475
    lat: 7.579
-
    station: ASSENGOUKAN
    lon: -4.8922
    lat: 7.7462
-
    station: ASSENGOUPLI
    lon: -4.8876
    lat: 7.7568
-
    station: ASSENZE
    lon: -5.5468
    lat: 7.6921
-
    station: ASSEREKRO
    lon: -4.8706
    lat: 6.6241
-
    station: ASSEUDJI
    lon: -3.9372
    lat: 6.3307
-
    station: ASSEYAOKRO
    lon: -5.7359
    lat: 7.6764
-
    station: ASSIE ASSASSO
    lon: -4.2592
    lat: 6.7439
-
    station: ASSIE BOSSONK
    lon: -4.4637
    lat: 6.6835
-
    station: ASSIE KOKORE
    lon: -4.3177
    lat: 6.7779
-
    station: ASSIE KOUMASS
    lon: -4.2917
    lat: 6.7685
-
    station: ASSIE KOYEKRO
    lon: -4.3047
    lat: 6.7641
-
    station: ASSIE MEAKRO
    lon: -4.2721
    lat: 6.7533
-
    station: ASSIE ORIE
    lon: -3.6376
    lat: 6.1883
-
    station: ASSIE-AKESSE
    lon: -4.329
    lat: 6.4702
-
    station: ASSIEBLENOU
    lon: -5.2039
    lat: 7.6788
-
    station: ASSIEDOUO 1
    lon: -3.0454
    lat: 9.2843
-
    station: ASSIEDOUO 2
    lon: -3.0144
    lat: 9.2872
-
    station: ASSIEMANKRO
    lon: -2.9659
    lat: 7.7869
-
    station: ASSIKA KAYABO
    lon: -4.4022
    lat: 6.8702
-
    station: 'ASSIKA N''ZIBL'
    lon: -4.343
    lat: 6.8705
-
    station: ASSIKA TCHIMO
    lon: -4.43
    lat: 6.8949
-
    station: ASSIKAKRO
    lon: -3.2352
    lat: 7.0901
-
    station: ASSIKOI
    lon: -3.8082
    lat: 5.9942
-
    station: ASSIKOUN
    lon: -3.8739
    lat: 6.4226
-
    station: ASSIKRO
    lon: -3.8917
    lat: 6.6463
-
    station: ASSIMAN
    lon: -2.8818
    lat: 8.0104
-
    station: ASSINDI
    lon: -3.3352
    lat: 7.4663
-
    station: ASSINIE-FRANC
    lon: -3.2742
    lat: 5.1223
-
    station: ASSINIE-MAFIA
    lon: -3.2862
    lat: 5.1389
-
    station: ASSINIE-SAGBA
    lon: -3.2942
    lat: 5.1315
-
    station: ASSINZE
    lon: -4.7972
    lat: 5.782
-
    station: ASSINZE
    lon: -5.2604
    lat: 7.6748
-
    station: ASSINZE
    lon: -5.1438
    lat: 6.5327
-
    station: ASSIRIKRO
    lon: -5.1675
    lat: 7.5922
-
    station: ASSOKO NGUESS
    lon: -4.8934
    lat: 6.9379
-
    station: ASSOKO YAO DJ
    lon: -4.9899
    lat: 7.0815
-
    station: ASSOKRO 1
    lon: -4.3502
    lat: 7.2441
-
    station: ASSOKRO 2
    lon: -4.336
    lat: 7.2517
-
    station: ASSOMLAN
    lon: -3.2959
    lat: 5.1975
-
    station: ASSOUADIE
    lon: -4.0399
    lat: 7.9698
-
    station: ASSOUAKRO
    lon: -5.0614
    lat: 7.7963
-
    station: ASSOUAKRO
    lon: -5.0951
    lat: 7.4277
-
    station: ASSOUAKRO
    lon: -4.008
    lat: 6.9664
-
    station: ASSOUAKRO
    lon: -5.1461
    lat: 6.5178
-
    station: ASSOUANGUI
    lon: -2.8799
    lat: 8.1506
-
    station: ASSOUBA
    lon: -3.2572
    lat: 5.4572
-
    station: ASSOUINDE
    lon: -3.5028
    lat: 5.1654
-
    station: ASSOUM 1
    lon: -3.0626
    lat: 9.229
-
    station: ASSOUM 2
    lon: -3.0926
    lat: 9.1836
-
    station: ASSOUMAMBANGO
    lon: -3.2621
    lat: 7.7615
-
    station: ASSOUMAN DIEK
    lon: -5.0359
    lat: 7.8555
-
    station: ASSOUMAYAOKRO
    lon: -5.0705
    lat: 7.6458
-
    station: ASSOUMOU KOUA
    lon: -3.7871
    lat: 7.5849
-
    station: ASSOUMOUKRO
    lon: -4.3755
    lat: 6.4565
-
    station: ASSOUNVOUE
    lon: -4.9815
    lat: 6.4777
-
    station: ASSOUVOUE-BEU
    lon: -5.3672
    lat: 7.3297
-
    station: ASSUAKRO
    lon: -5.0291
    lat: 7.4134
-
    station: ASSUAKRO
    lon: -2.9978
    lat: 7.4101
-
    station: ASSUAMAKRO
    lon: -3.0259
    lat: 7.1858
-
    station: ASSUAME
    lon: -3.2106
    lat: 7.1667
-
    station: ASSUE 1
    lon: -2.9983
    lat: 5.1328
-
    station: ASSUE 2
    lon: -2.995
    lat: 5.1288
-
    station: ASSUE-GNABOA
    lon: -3.0001
    lat: 5.1611
-
    station: ASSUE-MOSSI
    lon: -2.997
    lat: 5.1492
-
    station: ASSUEFRY
    lon: -2.9807
    lat: 7.7003
-
    station: ASSUETI
    lon: -3.9278
    lat: 7.1771
-
    station: ASSUETIFI
    lon: -3.0351
    lat: 7.4003
-
    station: ASSUIKRO
    lon: -5.3866
    lat: 7.0854
-
    station: ASSUOTIABANON
    lon: -2.9812
    lat: 7.5814
-
    station: ASSUOTIAKESSE
    lon: -2.9884
    lat: 7.5927
-
    station: ATAKRO
    lon: -3.0828
    lat: 7.2124
-
    station: ATCHIMANOU
    lon: -2.8352
    lat: 5.1203
-
    station: ATCHIN KOFFIK
    lon: -5.0145
    lat: 7.0513
-
    station: ATCHINKRO
    lon: -5.2854
    lat: 7.473
-
    station: ATOBLO
    lon: -3.3813
    lat: 7.0372
-
    station: ATONIHO
    lon: -6.0051
    lat: 6.0927
-
    station: ATRAME
    lon: -3.016
    lat: 7.9314
-
    station: ATTA KOUADIOK
    lon: -3.1044
    lat: 7.3775
-
    station: ATTAKETIAN TO
    lon: -2.9939
    lat: 7.5034
-
    station: ATTAKRO
    lon: -5.1097
    lat: 7.4368
-
    station: ATTANOU
    lon: -4.3041
    lat: 6.9658
-
    station: ATTEBETY
    lon: -3.1248
    lat: 5.3582
-
    station: ATTECOUBE
    lon: -4.0291
    lat: 5.3604
-
    station: ATTEHOU
    lon: -4.2556
    lat: 5.6431
-
    station: ATTEKRO
    lon: -4.807
    lat: 7.1641
-
    station: ATTIAKRO
    lon: -5.2433
    lat: 7.4319
-
    station: ATTIEGOUAKRO
    lon: -4.743
    lat: 7.3536
-
    station: ATTIEGOUAKRO
    lon: -5.119
    lat: 6.7731
-
    station: ATTIEKOI
    lon: -3.9677
    lat: 5.5354
-
    station: ATTIEKRO
    lon: -2.9758
    lat: 5.2592
-
    station: ATTIEKRO
    lon: -3.2141
    lat: 6.1328
-
    station: ATTIEN KONANK
    lon: -5.1236
    lat: 7.5998
-
    station: ATTIEN KOUASS
    lon: -4.8726
    lat: 7.086
-
    station: ATTIENKALA
    lon: -4.9734
    lat: 8.1361
-
    station: ATTIEOUAKRO
    lon: -4.8791
    lat: 7.6469
-
    station: ATTIGUEHI
    lon: -4.5468
    lat: 6.0632
-
    station: ATTINGUIE
    lon: -4.1852
    lat: 5.4659
-
    station: ATTISSA
    lon: -4.4423
    lat: 8.3089
-
    station: ATTOBROU
    lon: -4.0618
    lat: 6.0922
-
    station: ATTOHOU
    lon: -5.0996
    lat: 7.5541
-
    station: ATTOHOU
    lon: -4.8016
    lat: 7.2338
-
    station: ATTOKOM
    lon: -2.9441
    lat: 7.4892
-
    station: ATTOKRO
    lon: -4.3529
    lat: 7.8295
-
    station: ATTOPE 1
    lon: -4.2927
    lat: 5.6957
-
    station: ATTOPE 2
    lon: -4.313
    lat: 5.6975
-
    station: ATTOSSE OU TO
    lon: -5.8655
    lat: 6.856
-
    station: ATTOUMABO
    lon: -3.8415
    lat: 7.7433
-
    station: ATTOUTOU A
    lon: -4.5449
    lat: 5.27
-
    station: ATTOUTOU B
    lon: -4.556
    lat: 5.221
-
    station: ATTRENOU
    lon: -5.4348
    lat: 6.9608
-
    station: ATTROKRO
    lon: -4.8182
    lat: 7.597
-
    station: AUDOIN BEUGRE
    lon: -4.1365
    lat: 5.2842
-
    station: AUDOIN-SANTE
    lon: -4.1449
    lat: 5.2831
-
    station: AVADIVRY
    lon: -4.7252
    lat: 5.1582
-
    station: AVAGOU
    lon: -4.3209
    lat: 5.2126
-
    station: AWALEZO
    lon: -5.2118
    lat: 5.542
-
    station: AYA PRIKRO
    lon: -5.2335
    lat: 7.2769
-
    station: AYA-SAKASSOU
    lon: -5.3779
    lat: 7.473
-
    station: AYABO
    lon: -4.8246
    lat: 7.7086
-
    station: AYALO
    lon: -3.9358
    lat: 5.9095
-
    station: AYAME
    lon: -3.1672
    lat: 5.6037
-
    station: AYEBO
    lon: -3.2654
    lat: 5.4407
-
    station: AYEHOUAYI
    lon: -4.1794
    lat: 5.3615
-
    station: AYENGREBO
    lon: -5.0067
    lat: 7.4268
-
    station: AYENOU
    lon: -3.2253
    lat: 7.1605
-
    station: AYENOUAN
    lon: -3.3266
    lat: 5.3749
-
    station: AYOU-SOKPA
    lon: -5.6088
    lat: 7.4242
-
    station: AZAGUIE
    lon: -4.0555
    lat: 5.6379
-
    station: 'AZAGUIE M''BRO'
    lon: -4.1393
    lat: 5.6599
-
    station: AZAGUIE-BLIDA
    lon: -4.0895
    lat: 5.5213
-
    station: AZAGUIE-MAKOU
    lon: -4.1358
    lat: 5.6328
-
    station: AZURETTI
    lon: -3.7835
    lat: 5.2002
-
    station: BAADALA
    lon: -7.2677
    lat: 8.1064
-
    station: BAAZRA 1
    lon: -6.093
    lat: 7.4581
-
    station: BAAZRA 2
    lon: -6.095
    lat: 7.4578
-
    station: BABA
    lon: -6.7218
    lat: 4.7581
-
    station: BABADJOU
    lon: -3.3055
    lat: 9.8432
-
    station: BABADOUGOU
    lon: -3.3614
    lat: 5.4024
-
    station: BABADOUGOU
    lon: -5.6711
    lat: 8.2102
-
    station: BABADOUGOU
    lon: -7.8393
    lat: 8.3456
-
    station: BABAKRO
    lon: -3.9883
    lat: 7.7722
-
    station: BABALDOUO
    lon: -3.1953
    lat: 9.6644
-
    station: BABASSO
    lon: -6.6935
    lat: 8.5394
-
    station: BABAYEROUA
    lon: -6.4557
    lat: 5.7843
-
    station: BABIAHAN
    lon: -4.2159
    lat: 5.9558
-
    station: BABIEN
    lon: -6.8745
    lat: 7.9546
-
    station: BABLI-VAYA
    lon: -8.1632
    lat: 6.6202
-
    station: BABLY
    lon: -7.8726
    lat: 7.0275
-
    station: BABLY
    lon: -7.2895
    lat: 7.1789
-
    station: BABO
    lon: -6.7645
    lat: 7.1202
-
    station: BABOKON-DIDA
    lon: -5.3341
    lat: 5.5463
-
    station: BABOKON-GOBOU
    lon: -5.299
    lat: 5.5189
-
    station: BABOKOON-APPO
    lon: -5.3062
    lat: 5.5269
-
    station: BABOUE
    lon: -5.8203
    lat: 5.897
-
    station: BABOUESSO
    lon: -7.4535
    lat: 8.5914
-
    station: BABRASSO
    lon: -4.0147
    lat: 7.69
-
    station: BABROUKRO
    lon: -5.4596
    lat: 7.9155
-
    station: BAC-SEMIEN
    lon: -7.0692
    lat: 7.7106
-
    station: BACANDA
    lon: -4.8742
    lat: 5.6284
-
    station: BACO 1
    lon: -7.1458
    lat: 4.7092
-
    station: BACO 2 SOGB
    lon: -7.1287
    lat: 4.6756
-
    station: BACO 3 SOGB
    lon: -7.1409
    lat: 4.7495
-
    station: BACON
    lon: -3.9108
    lat: 6.3524
-
    station: BADA
    lon: -5.5245
    lat: 8.1221
-
    station: BADA-GOBOUA
    lon: -5.2702
    lat: 5.5037
-
    station: BADADON
    lon: -5.2627
    lat: 5.138
-
    station: BADADOUGOU
    lon: -5.3459
    lat: 5.553
-
    station: BADALA
    lon: -5.7004
    lat: 7.7702
-
    station: BADALA
    lon: -7.6195
    lat: 8.9471
-
    station: BADASSO
    lon: -4.5125
    lat: 5.685
-
    station: BADAYO
    lon: -6.6394
    lat: 5.8625
-
    station: BADIE
    lon: -5.6524
    lat: 6.1927
-
    station: BADIEBOUE
    lon: -5.9218
    lat: 5.3186
-
    station: BADIEFLA
    lon: -5.9571
    lat: 7.5954
-
    station: BADIEPA
    lon: -5.8255
    lat: 6.2611
-
    station: BADIKAHA
    lon: -5.1671
    lat: 9.1988
-
    station: BADIOKAHA
    lon: -5.2021
    lat: 8.8289
-
    station: BADJO-KOUAMEK
    lon: -4.8445
    lat: 7.6782
-
    station: BADJOUALA
    lon: -7.5281
    lat: 8.9318
-
    station: BADJOUALA
    lon: -7.968
    lat: 9.5109
-
    station: BADON
    lon: -6.0702
    lat: 9.4501
-
    station: BADOUBOUA
    lon: -6.4316
    lat: 6.6854
-
    station: BAFFIA
    lon: -2.9891
    lat: 5.5386
-
    station: BAFINGOALLA
    lon: -7.6692
    lat: 7.8555
-
    station: BAFRETOU
    lon: -6.6003
    lat: 8.79
-
    station: BAGAO
    lon: -5.7067
    lat: 8.1732
-
    station: BAGASSEHOA
    lon: -6.3771
    lat: 6.1841
-
    station: BAGO
    lon: -4.267
    lat: 5.4923
-
    station: BAGOHOUO
    lon: -7.1921
    lat: 6.8875
-
    station: BAGOLIEOUA
    lon: -6.5305
    lat: 6.1705
-
    station: BAGOURI
    lon: -6.8163
    lat: 7.1243
-
    station: BAGOZRA
    lon: -6.0809
    lat: 7.3693
-
    station: BAHE-BLAON
    lon: -7.3423
    lat: 6.6658
-
    station: BAHE-SEBON
    lon: -7.4012
    lat: 6.9393
-
    station: BAHIANAN OU T
    lon: -3.0528
    lat: 9.57
-
    station: BAHIGBEU 1
    lon: -6.7704
    lat: 6.6914
-
    station: BAHIGBEU 2
    lon: -6.7707
    lat: 6.685
-
    station: BAHINTEDOUO
    lon: -2.9146
    lat: 9.3026
-
    station: BAHIRMY
    lon: -3.9643
    lat: 7.5915
-
    station: BAHIRY
    lon: -6.7304
    lat: 7.3078
-
    station: BAHITIPLA
    lon: -5.799
    lat: 7.9149
-
    station: BAHOMPA
    lon: -5.8069
    lat: 6.4715
-
    station: BAHOUKAHA
    lon: -5.4118
    lat: 9.4988
-
    station: BAHOULIFLA
    lon: -6.4745
    lat: 7.2285
-
    station: BAHUAMA
    lon: -4.5999
    lat: 5.1786
-
    station: BAIFLA
    lon: -6.2906
    lat: 7.1788
-
    station: BAKADJASSOU
    lon: -5.2342
    lat: 7.6016
-
    station: BAKADOU
    lon: -6.0226
    lat: 5.4045
-
    station: BAKANDESSO
    lon: -7.6749
    lat: 7.8859
-
    station: BAKANOU A
    lon: -4.635
    lat: 5.591
-
    station: BAKANOU B
    lon: -4.6126
    lat: 5.6128
-
    station: BAKARISSO
    lon: -7.3589
    lat: 8.4188
-
    station: BAKAYO
    lon: -6.0453
    lat: 5.5317
-
    station: BAKAYO
    lon: -6.4369
    lat: 5.9711
-
    station: BAKIE
    lon: -2.9092
    lat: 8.1902
-
    station: BAKO
    lon: -3.4807
    lat: 9.5652
-
    station: BAKO
    lon: -7.6067
    lat: 9.1406
-
    station: BAKOPLA
    lon: -5.8804
    lat: 7.7643
-
    station: BAKORAHOIN
    lon: -5.8394
    lat: 5.866
-
    station: BAKORO-SEOULA
    lon: -4.7312
    lat: 8.3935
-
    station: BAKORO-SOBARA
    lon: -4.7281
    lat: 8.3929
-
    station: BAKOUBLI
    lon: -8.4143
    lat: 6.467
-
    station: BAKOUTIE
    lon: -2.9481
    lat: 7.8225
-
    station: BAKPAHI-DIOLL
    lon: -8.4049
    lat: 6.599
-
    station: BAKRO
    lon: -3.2434
    lat: 5.5002
-
    station: BAKRO-SAKASSO
    lon: -5.095
    lat: 7.051
-
    station: BAKROUKRO
    lon: -5.0712
    lat: 6.6863
-
    station: BALA
    lon: -4.6927
    lat: 8.6578
-
    station: BALAHIO
    lon: -6.0095
    lat: 6.4403
-
    station: BALAHIO
    lon: -6.4145
    lat: 6.3149
-
    station: BALALA
    lon: -7.9787
    lat: 9.4531
-
    station: BALANZIE
    lon: -4.5151
    lat: 7.9715
-
    station: BALEA1
    lon: -6.6507
    lat: 6.7464
-
    station: BALEA2
    lon: -6.6547
    lat: 6.7582
-
    station: BALEFLA
    lon: -5.6217
    lat: 6.6255
-
    station: BALEKAHA 1
    lon: -5.4811
    lat: 9.5115
-
    station: BALEKO
    lon: -6.0265
    lat: 5.4386
-
    station: BALEKOKRO
    lon: -4.0375
    lat: 7.2413
-
    station: BALEKRO
    lon: -5.3229
    lat: 7.9853
-
    station: BALEPLA
    lon: -5.8637
    lat: 7.9827
-
    station: BALEYO
    lon: -6.5573
    lat: 5.7587
-
    station: BALODOUO
    lon: -3.2105
    lat: 9.3132
-
    station: BALOGUI
    lon: -6.1998
    lat: 7.5044
-
    station: BALOKUYA
    lon: -6.3533
    lat: 5.2098
-
    station: BALOUHIO
    lon: -5.9769
    lat: 6.1172
-
    station: BALOUMDOUO
    lon: -3.0414
    lat: 9.5856
-
    station: BALOUZOU
    lon: -6.4249
    lat: 6.8944
-
    station: BALTAN
    lon: -3.4155
    lat: 9.8499
-
    station: BALUEPALEGNOA
    lon: -5.9817
    lat: 5.9095
-
    station: BAMBADOUGOU
    lon: -7.6068
    lat: 8.7693
-
    station: BAMBALOUMA
    lon: -6.0023
    lat: 7.8512
-
    station: BAMELA
    lon: -5.323
    lat: 7.834
-
    station: BAMORO BAOULE
    lon: -5.0463
    lat: 7.8364
-
    station: BAMORO GARE
    lon: -5.049
    lat: 7.8388
-
    station: BAMPLEU
    lon: -8.3063
    lat: 7.4003
-
    station: BANA
    lon: -5.8601
    lat: 9.0233
-
    station: BANA-YALFOU
    lon: -3.7126
    lat: 9.7287
-
    station: BANABO
    lon: -4.2885
    lat: 6.7005
-
    station: BANANDJE
    lon: -6.7465
    lat: 8.82
-
    station: BANANDJE
    lon: -6.6843
    lat: 7.847
-
    station: BANANGORO
    lon: -6.2295
    lat: 8.4274
-
    station: BANANGORO
    lon: -6.6497
    lat: 8.4988
-
    station: BANANGORO
    lon: -7.8052
    lat: 8.1405
-
    station: BANANIGORO
    lon: -7.0219
    lat: 8.395
-
    station: BANANKORO
    lon: -7.39
    lat: 9.8189
-
    station: BANDAKAGNYI S
    lon: -3.627
    lat: 8.1142
-
    station: BANDAKAGNYI T
    lon: -3.307
    lat: 8.006
-
    station: BANDAMAKO
    lon: -5.6579
    lat: 6.1139
-
    station: BANDAMANKRO
    lon: -4.3711
    lat: 7.6344
-
    station: BANDIAHI
    lon: -6.1853
    lat: 7.1992
-
    station: BANDIAHI
    lon: -6.3665
    lat: 7.567
-
    station: BANDOLE
    lon: -2.7046
    lat: 8.5934
-
    station: BANDOUO
    lon: -3.1125
    lat: 9.1556
-
    station: BANGAKOI
    lon: -3.8685
    lat: 5.498
-
    station: BANGALIDOUGOU
    lon: -6.0397
    lat: 5.6103
-
    station: BANGANA
    lon: -6.8129
    lat: 8.1696
-
    station: BANGOFE
    lon: -7.503
    lat: 8.2486
-
    station: BANGOFLA
    lon: -5.9301
    lat: 7.6888
-
    station: BANGOH
    lon: -7.7336
    lat: 8.1387
-
    station: BANGOKRO
    lon: -4.5522
    lat: 6.7561
-
    station: BANGOLO
    lon: -4.2117
    lat: 8.528
-
    station: BANGOLO
    lon: -7.4864
    lat: 7.0174
-
    station: BANGOLO KAHEN
    lon: -7.4869
    lat: 7.0297
-
    station: BANGOLO TAHOU
    lon: -7.1674
    lat: 7.0432
-
    station: BANGOLO ZONFA
    lon: -7.4865
    lat: 7.0282
-
    station: BANGOREDOUKOU
    lon: -5.1353
    lat: 5.2826
-
    station: BANGOUA
    lon: -3.4738
    lat: 7.337
-
    station: BANGUIE
    lon: -4.1936
    lat: 5.8946
-
    station: BANGUIE 2
    lon: -4.3683
    lat: 6.1937
-
    station: BANGUIEHI
    lon: -7.6333
    lat: 6.9201
-
    station: BANHANA
    lon: -6.4538
    lat: 7.8082
-
    station: BANHIELEU
    lon: -8.2409
    lat: 6.866
-
    station: BANHUI
    lon: -3.0683
    lat: 8.3351
-
    station: BANIA
    lon: -3.1753
    lat: 9.0205
-
    station: BANIE
    lon: -3.4059
    lat: 9.6908
-
    station: BANIGA
    lon: -7.691
    lat: 7.8847
-
    station: BANLE
    lon: -7.5517
    lat: 7.1672
-
    station: BANNEU
    lon: -8.2528
    lat: 7.0731
-
    station: BANOLILIE
    lon: -5.5761
    lat: 5.7319
-
    station: BANOUFLA
    lon: -6.3175
    lat: 7.1127
-
    station: BANOUFLA 1
    lon: -6.3142
    lat: 7.4557
-
    station: BANOUFLA 2
    lon: -6.0155
    lat: 7.4514
-
    station: BANTEADEPLEU
    lon: -8.1421
    lat: 7.1118
-
    station: BANTEGOUIN
    lon: -7.5891
    lat: 7.46
-
    station: BANTIFLA
    lon: -6.1071
    lat: 6.7477
-
    station: BANTINFLA
    lon: -6.0997
    lat: 6.7257
-
    station: BANVAYO
    lon: -3.7257
    lat: 8.6304
-
    station: BANVAYO
    lon: -3.657
    lat: 9.787
-
    station: BANYOUAPLEU
    lon: -8.2927
    lat: 6.9078
-
    station: BANZANDEPLEU
    lon: -8.2229
    lat: 7.1576
-
    station: BANZI
    lon: -7.3225
    lat: 8.226
-
    station: BAONFLA
    lon: -5.4992
    lat: 6.8352
-
    station: BAOU1
    lon: -7.3707
    lat: 7.2613
-
    station: BAOUBLI
    lon: -7.4018
    lat: 6.8055
-
    station: BAOULE-KOFFIK
    lon: -2.97
    lat: 7.3719
-
    station: BAPO
    lon: -4.365
    lat: 5.257
-
    station: BAPOLKAHA
    lon: -5.6668
    lat: 9.2389
-
    station: BARADOUGOU DI
    lon: -5.6517
    lat: 8.1036
-
    station: BARADOUGOU DI
    lon: -5.7431
    lat: 8.3361
-
    station: BARALA-SOBA
    lon: -7.816
    lat: 8.9457
-
    station: BARANDAKORO
    lon: -5.8287
    lat: 8.2682
-
    station: BARANZAN
    lon: -7.6263
    lat: 8.4933
-
    station: BARIGUEPAREHO
    lon: -5.7413
    lat: 6.0202
-
    station: BARRIERA
    lon: -3.453
    lat: 9.8698
-
    station: BASSA
    lon: -6.1605
    lat: 4.9186
-
    station: BASSA YOBOUES
    lon: -4.7579
    lat: 6.7682
-
    station: BASSADZIN
    lon: -3.7388
    lat: 5.9388
-
    station: BASSAKRO
    lon: -4.865
    lat: 6.7783
-
    station: BASSAKRO
    lon: -4.9529
    lat: 6.3234
-
    station: BASSAPLA
    lon: -5.9169
    lat: 7.8333
-
    station: BASSARAGUHE
    lon: -6.8508
    lat: 6.6672
-
    station: BASSATIMA
    lon: -7.4655
    lat: 7.6002
-
    station: BASSAWA
    lon: -4.1032
    lat: 8.0494
-
    station: BASSEHOA
    lon: -6.243
    lat: 6.127
-
    station: BASSEKODOUGOU
    lon: -7.5795
    lat: 9.4491
-
    station: BASSELE
    lon: -4.7972
    lat: 9.266
-
    station: BASSI
    lon: -6.2048
    lat: 6.2744
-
    station: BASSO NAFANA
    lon: -6.273
    lat: 10.5947
-
    station: BASSOULEYMANE
    lon: -4.7715
    lat: 9.3797
-
    station: BATEAN
    lon: -2.9213
    lat: 7.9263
-
    station: BATEDI-NORD
    lon: -3.9464
    lat: 9.5782
-
    station: BATEDI-YAL
    lon: -3.9212
    lat: 9.5712
-
    station: BATEFIGUI
    lon: -3.37
    lat: 9.904
-
    station: BATEGUIGUIA1
    lon: -6.6948
    lat: 6.8088
-
    station: BATEGUIGUIA2
    lon: -6.6637
    lat: 6.7822
-
    station: BATELEBRE1
    lon: -6.1008
    lat: 4.9421
-
    station: BATERA
    lon: -4.7311
    lat: 5.8369
-
    station: BATI LINDE
    lon: -3.5228
    lat: 9.8247
-
    station: BATIEBLY
    lon: -7.2823
    lat: 7.2658
-
    station: BATIYAL
    lon: -3.5126
    lat: 9.8047
-
    station: BATOGO
    lon: -6.6981
    lat: 8.7509
-
    station: BATROUAN
    lon: -6.6363
    lat: 6.5433
-
    station: BAUHIELEU
    lon: -8.1074
    lat: 7.0043
-
    station: BAUNDA
    lon: -4.6478
    lat: 7.2563
-
    station: BAVE
    lon: -4.1507
    lat: 9.5763
-
    station: BAYA
    lon: -6.2449
    lat: 9.9089
-
    station: BAYEKOU-BASSI
    lon: -5.9146
    lat: 6.2112
-
    station: BAYOBO
    lon: -4.2076
    lat: 7.4412
-
    station: BAYOLA
    lon: -7.9533
    lat: 8.3636
-
    station: BAYOLA
    lon: -7.9339
    lat: 8.1326
-
    station: BAYOTA
    lon: -5.9487
    lat: 6.4628
-
    station: BAYOUOPLEU
    lon: -8.305
    lat: 6.8602
-
    station: BAZAGA
    lon: -6.6109
    lat: 6.4775
-
    station: BAZALILIE
    lon: -5.4733
    lat: 5.9623
-
    station: BAZI
    lon: -5.7403
    lat: 6.8104
-
    station: BAZIAFLA
    lon: -5.8318
    lat: 7.0897
-
    station: BAZOA
    lon: -6.6266
    lat: 6.2291
-
    station: BAZOBLI
    lon: -6.4987
    lat: 6.5563
-
    station: BAZOUMANATOGO
    lon: -4.7904
    lat: 9.3773
-
    station: BAZRA-GOTTRON
    lon: -6.3744
    lat: 7.5878
-
    station: BAZRA-NATTIS
    lon: -6.5187
    lat: 7.6074
-
    station: BAZRE
    lon: -5.4801
    lat: 6.7228
-
    station: BEABLO
    lon: -7.3354
    lat: 6.38
-
    station: BEAPLEU
    lon: -8.1218
    lat: 7.0392
-
    station: BEATRO
    lon: -8.3547
    lat: 7.2455
-
    station: BEBAKOI
    lon: -3.9181
    lat: 5.4452
-
    station: BEBEDOUGOU
    lon: -6.1161
    lat: 8.8377
-
    station: BEBOU
    lon: -3.4143
    lat: 6.3619
-
    station: BEBOUO-SIBOUO
    lon: -6.2376
    lat: 6.8198
-
    station: BEBOUSSOU
    lon: -4.5033
    lat: 6.8541
-
    station: BECEDI
    lon: -4.5796
    lat: 5.6352
-
    station: BECEDI ANON
    lon: -3.9941
    lat: 5.9239
-
    station: BECEDI BRIGNA
    lon: -4.0133
    lat: 5.9133
-
    station: BECOUEFIN
    lon: -3.8485
    lat: 6.4809
-
    station: BEDARA
    lon: -4.3119
    lat: 7.789
-
    station: BEDI-GOAZON
    lon: -7.7882
    lat: 6.5609
-
    station: BEDIAKRO
    lon: -4.6584
    lat: 6.4422
-
    station: BEDIALA
    lon: -6.3054
    lat: 7.1627
-
    station: BEDIDOUO
    lon: -3.0912
    lat: 9.655
-
    station: BEDIEGBEU
    lon: -6.8214
    lat: 6.6763
-
    station: BEFLA
    lon: -6.0948
    lat: 7.2086
-
    station: BEGAFLA
    lon: -6.3303
    lat: 7.0336
-
    station: BEGBESSOU
    lon: -5.5887
    lat: 7.0702
-
    station: BEGNOUNONVOGO
    lon: -5.3138
    lat: 10.1926
-
    station: BEGOUAFLA
    lon: -5.804
    lat: 6.5609
-
    station: BEGUETIMI 1
    lon: -3.4353
    lat: 9.514
-
    station: BEGUETIMI 2
    lon: -3.4704
    lat: 9.5257
-
    station: BEHEBOU
    lon: -7.4575
    lat: 6.2966
-
    station: BEHEMA
    lon: -6.7616
    lat: 8.3973
-
    station: BEHIBOUE
    lon: -6.5198
    lat: 6.3663
-
    station: BEHINGUINANDO
    lon: -3.0874
    lat: 9.7126
-
    station: BEHIRI
    lon: -5.1932
    lat: 5.879
-
    station: BEHIRI
    lon: -5.4412
    lat: 5.6333
-
    station: BEHOUYONKAHA
    lon: -5.3647
    lat: 9.6351
-
    station: BEINLEU
    lon: -7.8813
    lat: 7.227
-
    station: BEINZRA
    lon: -6.0092
    lat: 7.3296
-
    station: BEITA
    lon: -7.4306
    lat: 7.7874
-
    station: BEKIE
    lon: -6.7198
    lat: 6.515
-
    station: BEKIE
    lon: -6.7251
    lat: 6.5154
-
    station: BEKIPREA
    lon: -6.4862
    lat: 6.8273
-
    station: BEKORA
    lon: -6.4414
    lat: 6.6356
-
    station: BEKOSSO
    lon: -7.8764
    lat: 8.1014
-
    station: BEKRO
    lon: -6.6067
    lat: 7.9278
-
    station: BELA-AHOUKRO
    lon: -5.1151
    lat: 7.5832
-
    station: BELAKRO
    lon: -5.5023
    lat: 7.6691
-
    station: BELAM
    lon: -6.1352
    lat: 6.2958
-
    station: BELE
    lon: -7.6464
    lat: 7.2521
-
    station: BELENTOUROU
    lon: -3.4076
    lat: 9.6238
-
    station: BELIEGUHE
    lon: -6.7852
    lat: 6.5185
-
    station: BELIEHOA
    lon: -6.1389
    lat: 6.3054
-
    station: BELLAKRO
    lon: -4.6923
    lat: 7.3595
-
    station: BELLE-VILLE
    lon: -6.8824
    lat: 6.8175
-
    station: BELLE-VILLE
    lon: -6.9064
    lat: 6.1854
-
    station: BEMASSO
    lon: -6.6911
    lat: 7.9394
-
    station: BEMASSO
    lon: -7.5509
    lat: 8.0682
-
    station: BEMAVOGO
    lon: -5.4656
    lat: 9.0224
-
    station: BEMBELA
    lon: -3.885
    lat: 9.5653
-
    station: BENA
    lon: -6.6832
    lat: 7.9855
-
    station: BENAMBERE
    lon: -3.1992
    lat: 8.3697
-
    station: BENANON
    lon: -3.0471
    lat: 7.5526
-
    station: BENANOU
    lon: -4.0218
    lat: 7.0603
-
    station: BENDE TANOUKR
    lon: -4.8143
    lat: 7.3971
-
    station: BENDE-KOUASSI
    lon: -5.1281
    lat: 7.6605
-
    station: BENDEFLA
    lon: -5.5011
    lat: 6.7245
-
    station: BENDEKRO
    lon: -4.5494
    lat: 7.4721
-
    station: BENDEKRO
    lon: -4.594
    lat: 6.8477
-
    station: BENDESSANKRO
    lon: -4.008
    lat: 7.6721
-
    station: BENDIE KOMENA
    lon: -3.9686
    lat: 7.2053
-
    station: BENDRESSOU
    lon: -4.9529
    lat: 6.5544
-
    station: BENENE
    lon: -4.0558
    lat: 6.9499
-
    station: BENGASSOU
    lon: -4.4833
    lat: 6.7979
-
    station: BENGO
    lon: -7.7942
    lat: 9.1691
-
    station: BENGORO
    lon: -7.0349
    lat: 7.8294
-
    station: BENGORO-DIOMA
    lon: -7.5843
    lat: 8.1045
-
    station: BENGORO-TIENK
    lon: -7.5763
    lat: 8.1988
-
    station: BENHUAFLA
    lon: -5.877
    lat: 6.594
-
    station: BENIAKRE
    lon: -3.4272
    lat: 5.4456
-
    station: BENIAN
    lon: -3.8811
    lat: 7.7653
-
    station: BENIASSO
    lon: -6.5907
    lat: 10.4871
-
    station: BENIMBARA
    lon: -3.2198
    lat: 9.6154
-
    station: BENKRO
    lon: -5.5556
    lat: 6.476
-
    station: BENOU OU TOS
    lon: -5.8352
    lat: 6.9152
-
    station: BENOUFLA
    lon: -6.2885
    lat: 7.6047
-
    station: BENVE
    lon: -7.8997
    lat: 8.2479
-
    station: BEON GOHOUO
    lon: -7.556
    lat: 6.9847
-
    station: BEOUA
    lon: -7.6413
    lat: 6.5471
-
    station: BEOUA ZARABAO
    lon: -7.8119
    lat: 6.9882
-
    station: BEOUA ZIBIAO
    lon: -7.4503
    lat: 7.1496
-
    station: BEOUE
    lon: -7.8684
    lat: 6.5592
-
    station: BEOUE
    lon: -7.425
    lat: 7.3615
-
    station: BEOUE ZAGNA
    lon: -7.4782
    lat: 6.9586
-
    station: BEOUE ZIBIAO
    lon: -7.3857
    lat: 7.1116
-
    station: BEOUE1
    lon: -7.3878
    lat: 7.286
-
    station: BEOUE2
    lon: -7.3918
    lat: 7.231
-
    station: BEOUMI
    lon: -5.5739
    lat: 7.6709
-
    station: BEOUMPEDOUO
    lon: -2.9817
    lat: 9.3629
-
    station: BEPLEU
    lon: -8.0311
    lat: 6.9984
-
    station: BEPLEU
    lon: -8.22
    lat: 6.8525
-
    station: BEREBLO
    lon: -7.466
    lat: 5.1947
-
    station: BEREGUHE
    lon: -6.6465
    lat: 6.4957
-
    station: BEREGUHE-BRAB
    lon: -6.6264
    lat: 6.4652
-
    station: BERENI-DIALLA
    lon: -6.8616
    lat: 7.9991
-
    station: BERENI-MARHAN
    lon: -6.8801
    lat: 7.9913
-
    station: BERIABOUKRO
    lon: -5.3029
    lat: 6.3806
-
    station: BERITAN
    lon: -5.6024
    lat: 6.6487
-
    station: BESSABOUA
    lon: -5.6456
    lat: 6.1227
-
    station: BESSEDOUGOU
    lon: -4.4363
    lat: 8.2641
-
    station: BESSELA
    lon: -6.6986
    lat: 8.1662
-
    station: BESSERE
    lon: -7.3156
    lat: 4.5761
-
    station: BESSERI TAKIK
    lon: -5.0391
    lat: 7.8555
-
    station: BETESSO
    lon: -4.8552
    lat: 5.3559
-
    station: BETIE
    lon: -3.9659
    lat: 7.7059
-
    station: BETROULILIE
    lon: -5.5876
    lat: 5.8215
-
    station: BETTIE
    lon: -3.4114
    lat: 6.0728
-
    station: BETTIMBO
    lon: -4.4954
    lat: 6.3526
-
    station: BEUGREDON
    lon: -5.3037
    lat: 5.1166
-
    station: BEUGREHOIN
    lon: -5.75
    lat: 5.9405
-
    station: BEVOGO
    lon: -5.4925
    lat: 9.8322
-
    station: BEVOGO 1
    lon: -5.4875
    lat: 9.6541
-
    station: BEVOGO 2
    lon: -5.8295
    lat: 9.6669
-
    station: BEYO
    lon: -5.9662
    lat: 5.6278
-
    station: BEYO
    lon: -6.061
    lat: 5.3091
-
    station: BEZIAKA
    lon: -6.1425
    lat: 7.4535
-
    station: BEZIBOUO
    lon: -6.4734
    lat: 6.6255
-
    station: BEZIBOUO
    lon: -6.5085
    lat: 6.6605
-
    station: BEZRO
    lon: -5.1851
    lat: 6.8176
-
    station: BIAKA
    lon: -3.1895
    lat: 5.5012
-
    station: BIAKALE
    lon: -7.6934
    lat: 7.4593
-
    station: BIAKRO-TIEKOR
    lon: -5.4309
    lat: 6.7307
-
    station: BIALATA
    lon: -6.3167
    lat: 7.1351
-
    station: BIANGOUINE
    lon: -7.8017
    lat: 7.1589
-
    station: BIANHITOUO
    lon: -8.2656
    lat: 7.0484
-
    station: BIANKE
    lon: -7.4112
    lat: 4.3821
-
    station: BIANKO
    lon: -7.4725
    lat: 8.2167
-
    station: BIANKOUMA
    lon: -7.6164
    lat: 7.7408
-
    station: BIANOUAN
    lon: -3.1901
    lat: 6.0155
-
    station: BIANTOUO 1
    lon: -8.2481
    lat: 6.9616
-
    station: BIANTOUO 2
    lon: -8.176
    lat: 6.8517
-
    station: BIASSO
    lon: -3.7849
    lat: 6.1071
-
    station: BIBIDJEFLA
    lon: -5.9112
    lat: 7.4005
-
    station: BIBIELDOUO
    lon: -2.9616
    lat: 9.4453
-
    station: BIBIKOREFLA
    lon: -5.96
    lat: 7.4092
-
    station: BIBITA
    lon: -7.0824
    lat: 7.6962
-
    station: BIDANDOUO
    lon: -3.1076
    lat: 9.4662
-
    station: BIDIALA-SOBAR
    lon: -4.1404
    lat: 8.4029
-
    station: BIDIE
    lon: -5.6241
    lat: 6.1942
-
    station: BIDIE
    lon: -3.4642
    lat: 9.6414
-
    station: BIDIHOUAN
    lon: -6.236
    lat: 6.6139
-
    station: BIDIO-LOLOHUI
    lon: -2.8984
    lat: 8.0278
-
    station: BIDJEDOUO
    lon: -3.1803
    lat: 9.4484
-
    station: BIDJINADOUO
    lon: -3.3258
    lat: 9.7681
-
    station: BIEBY
    lon: -3.6387
    lat: 6.0805
-
    station: BIEGNON
    lon: -3.1915
    lat: 9.8155
-
    station: BIEGONFLA
    lon: -6.0397
    lat: 6.7979
-
    station: BIELDEDOUO
    lon: -3.0913
    lat: 9.3751
-
    station: BIELE
    lon: -7.6188
    lat: 7.5966
-
    station: BIELFI-LETCHA
    lon: -3.4146
    lat: 9.8457
-
    station: BIELIGNINADOU
    lon: -3.1791
    lat: 9.5554
-
    station: BIELMI SIMITE
    lon: -3.6383
    lat: 9.8934
-
    station: BIELOU-CARREF
    lon: -6.2009
    lat: 8.5406
-
    station: BIELPINDOUOGB
    lon: -3.3373
    lat: 9.706
-
    station: BIELTADOUO
    lon: -3.1691
    lat: 9.5882
-
    station: BIENOUFLA
    lon: -6.6296
    lat: 7.3654
-
    station: BIETONDIE
    lon: -7.5529
    lat: 7.6963
-
    station: BIEUPLEU
    lon: -8.1679
    lat: 7.4311
-
    station: BIEUPLEU
    lon: -8.3656
    lat: 7.3853
-
    station: BIEUTOUO
    lon: -8.1225
    lat: 6.9064
-
    station: BIGA
    lon: -6.4894
    lat: 6.6192
-
    station: BIGOUIN
    lon: -7.5093
    lat: 7.3762
-
    station: BIGUILAYE
    lon: -3.8207
    lat: 9.5944
-
    station: BIHENANDOUO
    lon: -3.1817
    lat: 9.2663
-
    station: BIKASSI
    lon: -6.0604
    lat: 8.4868
-
    station: BIKOHIDOUO
    lon: -2.9329
    lat: 9.3474
-
    station: BIKOUNEREDOUO
    lon: -3.08
    lat: 9.2325
-
    station: BILAHIO
    lon: -6.1472
    lat: 6.2084
-
    station: BILALO
    lon: -7.6014
    lat: 8.8271
-
    station: BILBIEDOUO
    lon: -3.0461
    lat: 9.568
-
    station: BILIKEHI
    lon: -3.2156
    lat: 8.2706
-
    station: BILIMONO
    lon: -4.1508
    lat: 8.9174
-
    station: BIMBRESSO
    lon: -4.1579
    lat: 5.3093
-
    station: BIMBRESSO-BAO
    lon: -4.154
    lat: 5.3206
-
    station: BIN-HOUYE
    lon: -8.3126
    lat: 6.781
-
    station: BINANDOUO
    lon: -3.3743
    lat: 9.6463
-
    station: BINANDOUO
    lon: -3.2141
    lat: 9.803
-
    station: BINAO
    lon: -4.6619
    lat: 5.7952
-
    station: BINAO
    lon: -7.4633
    lat: 6.9302
-
    station: BINDE-BEGNIN
    lon: -3.2732
    lat: 5.2871
-
    station: BINDOLO OUASS
    lon: -4.2602
    lat: 8.135
-
    station: BINGERVILLE
    lon: -3.878
    lat: 5.3521
-
    station: BINGORA
    lon: -3.2985
    lat: 9.809
-
    station: BINGUETAN
    lon: -3.5399
    lat: 9.8839
-
    station: BINGUITEDOUO
    lon: -3.0141
    lat: 9.2743
-
    station: BINHOULERA
    lon: -5.9385
    lat: 7.6479
-
    station: BINI
    lon: -7.5708
    lat: 8.5688
-
    station: BINODOUO
    lon: -3.1161
    lat: 9.3147
-
    station: BINOUFLA
    lon: -5.8784
    lat: 6.6857
-
    station: BIPIREDOUO
    lon: -3.1983
    lat: 9.4638
-
    station: BIRAMADOUGOU
    lon: -8.006
    lat: 9.6341
-
    station: BIRAOUDI
    lon: -3.1418
    lat: 8.1543
-
    station: BISSAGUHE
    lon: -6.5717
    lat: 6.655
-
    station: BISSAMDOUO
    lon: -3.1081
    lat: 9.5221
-
    station: BISSANKOI
    lon: -3.1497
    lat: 9.7563
-
    station: BISSASSE
    lon: -3.0574
    lat: 7.5124
-
    station: BISSIDOUGOU
    lon: -5.8628
    lat: 8.6589
-
    station: BISSORI-TCHOG
    lon: -3.0707
    lat: 9.2376
-
    station: BITA
    lon: -6.313
    lat: 7.5981
-
    station: BITAPIA
    lon: -6.4845
    lat: 6.4951
-
    station: BITCHIMTEDOUO
    lon: -2.9273
    lat: 9.1303
-
    station: BLA
    lon: -6.4754
    lat: 6.7249
-
    station: BLABLATA
    lon: -6.0134
    lat: 6.9313
-
    station: BLABLATA
    lon: -6.2412
    lat: 7.2942
-
    station: BLAGOUIN
    lon: -7.7006
    lat: 7.6933
-
    station: BLAHOU
    lon: -6.5549
    lat: 4.9328
-
    station: BLAHOUARA
    lon: -5.7169
    lat: 9.5066
-
    station: BLAMA
    lon: -5.7781
    lat: 6.9914
-
    station: BLAMADOUGOU
    lon: -7.708
    lat: 8.765
-
    station: BLANDOUGOU
    lon: -7.7961
    lat: 9.0106
-
    station: BLANFLA
    lon: -5.7635
    lat: 6.8563
-
    station: BLANOUFLA
    lon: -6.0337
    lat: 6.7981
-
    station: BLAOUARA
    lon: -5.6554
    lat: 8.9489
-
    station: BLAPLEU
    lon: -7.7367
    lat: 7.6381
-
    station: BLAPLEU
    lon: -8.0166
    lat: 7.2477
-
    station: BLE
    lon: -5.2
    lat: 5.899
-
    station: BLE
    lon: -5.0002
    lat: 6.5008
-
    station: BLE OU TOS 6
    lon: -5.8518
    lat: 6.8102
-
    station: BLE-AKANZAKRO
    lon: -5.5292
    lat: 7.3183
-
    station: BLEANIANDA
    lon: -5.7037
    lat: 6.304
-
    station: BLEDI
    lon: -5.0932
    lat: 7.4964
-
    station: BLEDI-DIEYA
    lon: -8.0696
    lat: 6.5861
-
    station: BLEDIEKE
    lon: -7.2742
    lat: 4.4608
-
    station: BLEDIEMENE
    lon: -6.5602
    lat: 9.7707
-
    station: BLEDY
    lon: -7.3664
    lat: 7.1438
-
    station: BLEFLAI
    lon: -5.8996
    lat: 7.4936
-
    station: BLEGOUIN
    lon: -7.461
    lat: 7.6856
-
    station: BLEKOUA
    lon: -5.6411
    lat: 6.3205
-
    station: BLEKOUM
    lon: -3.5372
    lat: 6.391
-
    station: BLEKRO
    lon: -5.3448
    lat: 7.3789
-
    station: BLELA
    lon: -6.4489
    lat: 7.8674
-
    station: BLENIMEOUIN
    lon: -7.1796
    lat: 7.1375
-
    station: BLENKPO
    lon: -5.396
    lat: 8.0851
-
    station: BLEOUEKRO
    lon: -2.9405
    lat: 5.1739
-
    station: BLEPLEU
    lon: -7.826
    lat: 7.3852
-
    station: BLESSEGUE
    lon: -6.4078
    lat: 10.1975
-
    station: BLESSEOUA
    lon: -6.4706
    lat: 6.2491
-
    station: BLESSOU
    lon: -5.0793
    lat: 7.4978
-
    station: BLEUPLEU
    lon: -8.3513
    lat: 7.3759
-
    station: BLIDOLILIE
    lon: -5.4177
    lat: 5.9876
-
    station: BLIDOUBA
    lon: -7.4202
    lat: 4.5925
-
    station: BLIERON
    lon: -7.5187
    lat: 4.3633
-
    station: BLIKAODI
    lon: -3.11
    lat: 9.1719
-
    station: BLINLEU
    lon: -8.0957
    lat: 7.051
-
    station: BLIZREU
    lon: -8.2076
    lat: 7.2478
-
    station: BLODY
    lon: -7.3068
    lat: 6.7957
-
    station: BLOLE
    lon: -7.5122
    lat: 7.3206
-
    station: BLOLE
    lon: -7.8091
    lat: 7.2564
-
    station: BLOLEQUIN
    lon: -8.0037
    lat: 6.57
-
    station: BLOMA
    lon: -8.0597
    lat: 7.8029
-
    station: BLONLEU
    lon: -8.0761
    lat: 7.1317
-
    station: BLONTOUO
    lon: -8.3182
    lat: 6.8785
-
    station: BLOTILE
    lon: -7.6946
    lat: 7.049
-
    station: BLOUZON
    lon: -5.955
    lat: 6.4545
-
    station: BOAKA
    lon: -6.1
    lat: 7.6853
-
    station: BOATIA
    lon: -2.8982
    lat: 7.9818
-
    station: BOBI
    lon: -6.5537
    lat: 8.1592
-
    station: BOBIA OU GNEN
    lon: -5.8366
    lat: 6.0729
-
    station: BOBIADOUGOU
    lon: -5.2399
    lat: 5.6185
-
    station: BOBLENOU
    lon: -5.0055
    lat: 7.7582
-
    station: BOBO
    lon: -4.9975
    lat: 7.6458
-
    station: BOBOKRO
    lon: -4.7712
    lat: 7.7268
-
    station: BOBOLILIE OPA
    lon: -5.9106
    lat: 5.7327
-
    station: BOBOLILIE TIG
    lon: -5.8297
    lat: 5.8527
-
    station: BOBOLOUA
    lon: -6.0062
    lat: 6.429
-
    station: BOBONIESSOKO
    lon: -6.6546
    lat: 6.9671
-
    station: BOBOSSO
    lon: -4.2601
    lat: 8.0851
-
    station: BOBOSSO
    lon: -4.1462
    lat: 8.5135
-
    station: BOBOUA-BAHOUA
    lon: -6.4712
    lat: 7.0144
-
    station: BOBOUO 1
    lon: -6.0347
    lat: 5.5958
-
    station: BOBOUO 2
    lon: -6.0793
    lat: 5.6362
-
    station: BOBREGUHE
    lon: -6.5641
    lat: 6.5413
-
    station: BOCABO
    lon: -4.4934
    lat: 6.2518
-
    station: BOCABO
    lon: -4.5936
    lat: 6.6941
-
    station: BOCABO
    lon: -5.4406
    lat: 6.9817
-
    station: BOCANDA
    lon: -4.4941
    lat: 7.063
-
    station: BOCASSI
    lon: -4.1999
    lat: 6.6117
-
    station: BODA
    lon: -6.8283
    lat: 5.2022
-
    station: BODE
    lon: -3.1682
    lat: 8.5818
-
    station: BODIBA
    lon: -5.7149
    lat: 6.4386
-
    station: BODIEKO
    lon: -5.5944
    lat: 6.1016
-
    station: BODIENOU
    lon: -4.9125
    lat: 5.581
-
    station: BODO
    lon: -4.6892
    lat: 5.9089
-
    station: BODO
    lon: -6.0398
    lat: 9.0334
-
    station: BODO
    lon: -3.8531
    lat: 8.4434
-
    station: BODO AOSSIKRO
    lon: -4.79
    lat: 7.0637
-
    station: BODOCIPA
    lon: -5.9534
    lat: 6.3345
-
    station: BODOGNOA
    lon: -6.0057
    lat: 5.7959
-
    station: BODOKRO
    lon: -5.475
    lat: 7.8646
-
    station: BODONON
    lon: -5.6633
    lat: 9.5767
-
    station: BODONON
    lon: -5.888
    lat: 9.82
-
    station: BODOU
    lon: -4.4641
    lat: 5.3106
-
    station: BODOUYO
    lon: -6.1637
    lat: 5.6928
-
    station: BODUASSO
    lon: -6.3947
    lat: 7.7056
-
    station: BOESSOVODA
    lon: -5.677
    lat: 6.3568
-
    station: BOFESSO DOUMA
    lon: -7.53
    lat: 7.559
-
    station: BOFIA
    lon: -5.238
    lat: 7.212
-
    station: BOFLA
    lon: -5.9419
    lat: 7.6393
-
    station: 'BOFOIN N''GATT'
    lon: -3.9958
    lat: 7.3986
-
    station: BOFOUIMBO
    lon: -3.9759
    lat: 7.6772
-
    station: BOFREBO
    lon: -4.8198
    lat: 6.6095
-
    station: BOGBAM
    lon: -6.1892
    lat: 6.3896
-
    station: BOGNANKRO
    lon: -4.0136
    lat: 7.8579
-
    station: BOGNIRA
    lon: -3.2323
    lat: 9.4951
-
    station: BOGNOA
    lon: -5.8184
    lat: 6.0646
-
    station: BOGNONZRA
    lon: -5.9735
    lat: 6.9396
-
    station: BOGOBA
    lon: -7.2393
    lat: 8.8658
-
    station: BOGOBA
    lon: -6.9103
    lat: 8.225
-
    station: BOGODOUGOU
    lon: -4.4316
    lat: 8.3282
-
    station: BOGODOUGOU
    lon: -7.3319
    lat: 9.8721
-
    station: BOGODOUGOU
    lon: -7.897
    lat: 9.6851
-
    station: BOGOPINFLA
    lon: -5.9955
    lat: 7.2949
-
    station: BOGOU
    lon: -6.324
    lat: 6.5415
-
    station: BOGOUIME
    lon: -7.5967
    lat: 7.2591
-
    station: BOGOUINE1
    lon: -7.6963
    lat: 7.3842
-
    station: BOGOUINE2
    lon: -7.6238
    lat: 7.3578
-
    station: BOGREKO
    lon: -6.2444
    lat: 5.6215
-
    station: BOGROGNOA
    lon: -6.0133
    lat: 6.0719
-
    station: BOGUEDIA
    lon: -6.5144
    lat: 6.6316
-
    station: BOGUEHOA
    lon: -6.2095
    lat: 6.3137
-
    station: BOGUIE
    lon: -4.0763
    lat: 6.0677
-
    station: BOHI
    lon: -2.8656
    lat: 7.9207
-
    station: BOHIBLI
    lon: -8.2465
    lat: 6.5882
-
    station: BOHICO
    lon: -5.5698
    lat: 5.1191
-
    station: BOHIDANAN
    lon: -3.07
    lat: 9.583
-
    station: BOHIDIANFLA
    lon: -5.8336
    lat: 7.5102
-
    station: BOHIFLA
    lon: -6.741
    lat: 7.4507
-
    station: BOHIKOUAIFLA
    lon: -5.8728
    lat: 7.6073
-
    station: BOHINOU
    lon: -6.8366
    lat: 7.1638
-
    station: BOHISSO
    lon: -7.5919
    lat: 9.0793
-
    station: BOHITIEFLA
    lon: -5.9104
    lat: 7.4102
-
    station: BOHIZRA
    lon: -6.0241
    lat: 7.4914
-
    station: BOHN
    lon: -4.4899
    lat: 5.3156
-
    station: BOHO 2
    lon: -7.3531
    lat: 7.1467
-
    station: BOHOBLI
    lon: -8.361
    lat: 6.4676
-
    station: BOIGNYKRO
    lon: -6.5079
    lat: 5.0431
-
    station: BOKA-KOUAMEKR
    lon: -4.7077
    lat: 7.6955
-
    station: BOKADOUO
    lon: -3.1841
    lat: 9.4387
-
    station: BOKAKOKORE
    lon: -3.3906
    lat: 6.4575
-
    station: BOKAKRO
    lon: -4.6732
    lat: 6.9305
-
    station: BOKALA NIAMPO
    lon: -4.6074
    lat: 8.4046
-
    station: BOKALA NOUMOU
    lon: -4.5645
    lat: 8.4594
-
    station: BOKAREGUHE
    lon: -6.8576
    lat: 6.5984
-
    station: BOKASSI
    lon: -4.7501
    lat: 7.7485
-
    station: BOKASSO
    lon: -5.171
    lat: 6.125
-
    station: BOKASSOU
    lon: -5.5793
    lat: 7.0042
-
    station: BOKE
    lon: -7.3776
    lat: 4.404
-
    station: BOKEDA
    lon: -5.7114
    lat: 6.3612
-
    station: BOKI
    lon: -3.5929
    lat: 9.8274
-
    station: BOKO
    lon: -5.4802
    lat: 5.9259
-
    station: BOKORE
    lon: -2.8284
    lat: 8.1725
-
    station: BOKOUAKOUKRO
    lon: -5.2709
    lat: 7.8094
-
    station: BOKOUNA
    lon: -7.5147
    lat: 10.0658
-
    station: BOLE
    lon: -4.2474
    lat: 9.665
-
    station: BOLI DIOULA
    lon: -4.8084
    lat: 7.2213
-
    station: BOLIA
    lon: -6.3973
    lat: 6.7687
-
    station: BOLIA
    lon: -6.6238
    lat: 6.5453
-
    station: BOLIA
    lon: -6.3022
    lat: 6.5175
-
    station: BOLIDOUHOIN
    lon: -5.6862
    lat: 5.9507
-
    station: BOLO
    lon: -6.0342
    lat: 5.3028
-
    station: BOLO
    lon: -5.9667
    lat: 5.3198
-
    station: BOLO
    lon: -5.9978
    lat: 5.2833
-
    station: BOLONA
    lon: -6.4381
    lat: 10.2924
-
    station: BOLONDO
    lon: -6.3125
    lat: 9.3319
-
    station: BOLONGO
    lon: -5.6006
    lat: 7.3447
-
    station: BOLOROUKO
    lon: -5.6557
    lat: 5.1526
-
    station: BOMANDOUO
    lon: -3.1233
    lat: 9.4144
-
    station: BOMASSAPLA
    lon: -5.8109
    lat: 7.7756
-
    station: BOMBOKRO
    lon: -4.5171
    lat: 6.9929
-
    station: BOMIKRO
    lon: -4.2944
    lat: 5.9395
-
    station: BOMIZAMBO
    lon: -5.2255
    lat: 7.1399
-
    station: BONAHOUIN
    lon: -3.7614
    lat: 6.5627
-
    station: BONANGORO
    lon: -7.8272
    lat: 9.0227
-
    station: BONDA
    lon: -5.2336
    lat: 7.5818
-
    station: BONDEME
    lon: -2.9457
    lat: 8.0971
-
    station: BONDO DIOULA
    lon: -3.194
    lat: 8.2246
-
    station: BONDO KOULANG
    lon: -3.192
    lat: 8.2126
-
    station: BONDO-DIOULA
    lon: -3.1975
    lat: 8.2228
-
    station: BONDOSSOU
    lon: -5.5892
    lat: 7.3811
-
    station: BONDOUGOU-PLI
    lon: -5.2695
    lat: 7.588
-
    station: BONDOUKOU
    lon: -3.4203
    lat: 5.2365
-
    station: BONDOUKOU
    lon: -3.4175
    lat: 5.2088
-
    station: BONDOUKOU
    lon: -4.8518
    lat: 7.1784
-
    station: BONDOUKOU
    lon: -5.0531
    lat: 7.0876
-
    station: BONDOUKOU
    lon: -2.794
    lat: 8.0399
-
    station: BONDOYO
    lon: -3.4008
    lat: 8.4431
-
    station: BONEFLA
    lon: -6.2571
    lat: 7.2536
-
    station: BONFILE 1
    lon: -3.0401
    lat: 9.4352
-
    station: BONFILE 2
    lon: -3.0351
    lat: 9.4521
-
    station: BONGAMA
    lon: -6.2636
    lat: 9.6047
-
    station: BONGO KOUASSI
    lon: -4.8173
    lat: 7.2102
-
    station: BONGO SAPH
    lon: -3.5165
    lat: 5.5064
-
    station: BONGO-VILLAGE
    lon: -3.5466
    lat: 5.5086
-
    station: BONGOBO
    lon: -5.0429
    lat: 7.0223
-
    station: BONGOFLA
    lon: -5.7851
    lat: 7.5388
-
    station: BONGOUANOU
    lon: -4.2009
    lat: 6.6448
-
    station: BONGRABO OUAU
    lon: -4.8574
    lat: 7.6936
-
    station: BONGUERA
    lon: -4.2428
    lat: 7.6643
-
    station: BONI ANDOKRO
    lon: -4.9033
    lat: 6.7328
-
    station: BONI KOUASSIK
    lon: -4.5533
    lat: 6.8612
-
    station: BONI-TOTOKRO
    lon: -5.1235
    lat: 7.2351
-
    station: BONIANKRO
    lon: -4.9084
    lat: 7.005
-
    station: BONIEREDOUGOU
    lon: -4.7209
    lat: 8.3742
-
    station: BONIKRO
    lon: -5.5163
    lat: 7.5439
-
    station: BONIKRO
    lon: -5.2221
    lat: 6.3848
-
    station: BONNA
    lon: -6.8443
    lat: 8.166
-
    station: BONNIGBE
    lon: -7.8399
    lat: 8.9576
-
    station: BONON
    lon: -6.042
    lat: 6.9275
-
    station: BONON BI ZEHI
    lon: -5.9515
    lat: 6.9464
-
    station: BONOSSO
    lon: -5.7269
    lat: 8.2208
-
    station: BONOUA
    lon: -3.5961
    lat: 5.2721
-
    station: BONOUFLA
    lon: -6.4756
    lat: 7.1188
-
    station: BONTRO
    lon: -8.3254
    lat: 7.395
-
    station: BONZI
    lon: -5.3346
    lat: 6.8336
-
    station: BONZO
    lon: -7.2625
    lat: 8.1634
-
    station: BONZO MALEKRO
    lon: -4.6305
    lat: 7.3932
-
    station: BOODA
    lon: -5.688
    lat: 6.3596
-
    station: BOOKO
    lon: -7.7889
    lat: 8.8747
-
    station: BOOKO-KESSIEN
    lon: -7.8749
    lat: 8.9405
-
    station: BOONI-GBELO
    lon: -7.7262
    lat: 8.2016
-
    station: BOORE AKPOKRO
    lon: -4.5603
    lat: 6.8086
-
    station: BOORE ETTIENK
    lon: -4.5502
    lat: 6.8269
-
    station: BOORO-BOROTOU
    lon: -7.5723
    lat: 8.4733
-
    station: BOPLEU
    lon: -8.1384
    lat: 7.1024
-
    station: BOPRI
    lon: -4.7722
    lat: 7.6328
-
    station: BOPRI
    lon: -5.1019
    lat: 7.3354
-
    station: BOROBADOUGOU
    lon: -6.9656
    lat: 8.6949
-
    station: BOROBO
    lon: -3.296
    lat: 6.2
-
    station: BOROHOULEMA
    lon: -6.1459
    lat: 8.0753
-
    station: BOROKO
    lon: -2.8239
    lat: 7.9078
-
    station: BOROKOUA
    lon: -6.546
    lat: 6.579
-
    station: BOROMBA
    lon: -2.6306
    lat: 8.0513
-
    station: BORON
    lon: -5.966
    lat: 8.6928
-
    station: BORONTOULO
    lon: -7.8665
    lat: 8.1458
-
    station: BOROPEKAHA
    lon: -6.1341
    lat: 9.9754
-
    station: BOROTOGONA
    lon: -4.7662
    lat: 9.3807
-
    station: BOROTOU
    lon: -7.4923
    lat: 8.7357
-
    station: BOROTOU-KORO
    lon: -7.1788
    lat: 8.494
-
    station: BOROYARADOUGO
    lon: -4.5015
    lat: 7.9506
-
    station: BOSSEMATIE
    lon: -3.4439
    lat: 6.6077
-
    station: BOSSI
    lon: -5.0383
    lat: 7.4138
-
    station: BOSSOGNAMIANK
    lon: -3.0316
    lat: 7.2878
-
    station: BOSSOMARA
    lon: -3.2225
    lat: 7.9957
-
    station: BOSSOMKUIKRO
    lon: -3.0377
    lat: 7.6284
-
    station: BOTE-NDE
    lon: -4.9478
    lat: 7.4601
-
    station: BOTIFLA
    lon: -6.4761
    lat: 7.7131
-
    station: BOTINDE
    lon: -4.7551
    lat: 5.7761
-
    station: BOTONGOUINE
    lon: -7.5708
    lat: 7.3033
-
    station: BOTOU
    lon: -3.1173
    lat: 9.3095
-
    station: BOTOULA-DIOMA
    lon: -7.5555
    lat: 8.1223
-
    station: BOTRO
    lon: -5.3131
    lat: 7.85
-
    station: BOUA
    lon: -7.0535
    lat: 5.0096
-
    station: BOUA KOUADIOK
    lon: -4.6192
    lat: 7.2694
-
    station: BOUADAM
    lon: -2.9346
    lat: 7.9367
-
    station: BOUADIKRO
    lon: -4.3335
    lat: 6.7017
-
    station: BOUADOUA
    lon: -3.076
    lat: 5.1726
-
    station: BOUAFLA
    lon: -5.8483
    lat: 7.2454
-
    station: BOUAFLE
    lon: -5.751
    lat: 6.9821
-
    station: BOUAFOUKRO
    lon: -4.479
    lat: 6.6709
-
    station: BOUAGLEU
    lon: -8.267
    lat: 7.0041
-
    station: BOUAGLEU1
    lon: -8.119
    lat: 7.2065
-
    station: BOUAGLEU2
    lon: -8.1212
    lat: 7.2277
-
    station: BOUAKAKRO
    lon: -5.3029
    lat: 6.1533
-
    station: BOUAKE
    lon: -5.0199
    lat: 7.69
-
    station: BOUAKRO
    lon: -5.4574
    lat: 7.7978
-
    station: BOUAKRO
    lon: -4.7178
    lat: 7.6012
-
    station: BOUAKRO
    lon: -5.2016
    lat: 7.6275
-
    station: BOUAKRO
    lon: -5.0551
    lat: 7.532
-
    station: BOUALI
    lon: -5.2953
    lat: 7.4991
-
    station: BOUAN HOUYE
    lon: -8.3315
    lat: 7.5539
-
    station: BOUANDOUGOU
    lon: -5.6704
    lat: 8.2187
-
    station: BOUAPE
    lon: -3.8161
    lat: 6.2606
-
    station: BOUATA
    lon: -6.2318
    lat: 7.5332
-
    station: BOUAYAOKRO
    lon: -5.7139
    lat: 7.6495
-
    station: BOUBELE
    lon: -7.2459
    lat: 4.4845
-
    station: BOUBOUDI
    lon: -5.4165
    lat: 5.6575
-
    station: BOUBOURY
    lon: -4.4602
    lat: 5.3367
-
    station: BOUBRE
    lon: -7.4938
    lat: 4.3619
-
    station: BOUDEPE
    lon: -3.9901
    lat: 5.9855
-
    station: BOUDY
    lon: -2.9009
    lat: 7.9501
-
    station: BOUEBLY
    lon: -7.2145
    lat: 7.2107
-
    station: BOUEGBESSOU
    lon: -4.9402
    lat: 7.1053
-
    station: BOUEKRO
    lon: -4.973
    lat: 7.0448
-
    station: BOUENEU
    lon: -8.2344
    lat: 6.9224
-
    station: BOUGOU
    lon: -4.404
    lat: 8.9909
-
    station: BOUGOU
    lon: -5.8629
    lat: 10.223
-
    station: BOUGOULA
    lon: -6.3311
    lat: 10.155
-
    station: BOUGOULA
    lon: -6.552
    lat: 10.4531
-
    station: BOUGOULAYE
    lon: -3.6308
    lat: 8.5832
-
    station: BOUGOUNON
    lon: -6.1434
    lat: 8.3918
-
    station: BOUGOUNOUGO
    lon: -6.0925
    lat: 9.9173
-
    station: BOUGOUSSA
    lon: -7.6042
    lat: 9.9723
-
    station: BOUGOUSSO
    lon: -7.8233
    lat: 9.2551
-
    station: BOUHITAFLA
    lon: -6.4652
    lat: 7.3754
-
    station: BOUILA
    lon: -6.3597
    lat: 7.8817
-
    station: BOUIMPLEU
    lon: -8.173
    lat: 7.1765
-
    station: BOUINDALA
    lon: -7.6984
    lat: 8.1817
-
    station: BOUKE
    lon: -5.619
    lat: 5.8215
-
    station: BOUKEBO
    lon: -5.3242
    lat: 7.7558
-
    station: BOUKO
    lon: -3.1748
    lat: 9.4739
-
    station: BOUKO
    lon: -3.3956
    lat: 7.7698
-
    station: BOULA-DIOMAN
    lon: -7.4815
    lat: 8.1349
-
    station: BOULEU
    lon: -8.1483
    lat: 7.2084
-
    station: BOUNA
    lon: -2.9999
    lat: 9.2716
-
    station: BOUNADOUGOU
    lon: -4.6965
    lat: 8.3831
-
    station: BOUNAFLA
    lon: -5.5116
    lat: 6.7233
-
    station: BOUNATINFLA
    lon: -5.917
    lat: 6.7559
-
    station: BOUNDA
    lon: -4.7367
    lat: 7.6231
-
    station: BOUNDA
    lon: -7.9519
    lat: 8.0767
-
    station: BOUNDIALI
    lon: -6.4816
    lat: 9.5176
-
    station: BOUNGUE
    lon: -4.9365
    lat: 7.3737
-
    station: BOUNIFLA
    lon: -5.919
    lat: 6.7604
-
    station: BOUNONKAHA
    lon: -5.6136
    lat: 9.4175
-
    station: BOUNOUGBARA
    lon: -3.5658
    lat: 9.8863
-
    station: BOUNTA
    lon: -7.9553
    lat: 7.6436
-
    station: BOUNTA
    lon: -8.1512
    lat: 7.1212
-
    station: BOUNTOU
    lon: -7.1874
    lat: 8.498
-
    station: BOUOBLY
    lon: -7.267
    lat: 7.1315
-
    station: BOUPLEU
    lon: -8.268
    lat: 6.9491
-
    station: BOUPLEU 2
    lon: -8.1357
    lat: 7.0658
-
    station: BOUREBO
    lon: -5.7154
    lat: 7.712
-
    station: BOUROU-BOUROU
    lon: -4.6857
    lat: 8.382
-
    station: BOUROUKPONKO
    lon: -2.6315
    lat: 8.2197
-
    station: BOUROUMASSO
    lon: -7.1574
    lat: 9.6782
-
    station: BOUROUNON
    lon: -6.1071
    lat: 7.7286
-
    station: BOUSSOUE
    lon: -4.6602
    lat: 5.7884
-
    station: BOUSSOUKRO
    lon: -4.6953
    lat: 5.8806
-
    station: BOUSSOUPALEGN
    lon: -5.9027
    lat: 5.8907
-
    station: BOUTISSO
    lon: -7.7473
    lat: 7.9512
-
    station: BOUTOUBRE 1
    lon: -6.427
    lat: 5.5003
-
    station: BOUTOUBRE2
    lon: -6.4186
    lat: 5.4787
-
    station: BOUTOUO 2
    lon: -8.0903
    lat: 6.9415
-
    station: BOUTOUO1
    lon: -8.2367
    lat: 6.8649
-
    station: BOYAPLEU1
    lon: -8.1313
    lat: 7.0518
-
    station: BOYAPLEU2
    lon: -8.128
    lat: 7.045
-
    station: BOYO
    lon: -6.378
    lat: 9.9501
-
    station: BOZANGUI
    lon: -2.8386
    lat: 8.3346
-
    station: BOZI
    lon: -5.5349
    lat: 6.9171
-
    station: BOZI 2
    lon: -5.585
    lat: 6.8615
-
    station: BRABODOUGOU
    lon: -5.2948
    lat: 5.7955
-
    station: BRABORI
    lon: -5.3827
    lat: 5.9127
-
    station: BRABOUA
    lon: -5.6848
    lat: 6.032
-
    station: BRACODI
    lon: -3.2176
    lat: 8.4585
-
    station: BRACODI
    lon: -3.1081
    lat: 7.9728
-
    station: BRAFFEDON
    lon: -4.9831
    lat: 5.149
-
    station: BRAFOUEBY
    lon: -4.5632
    lat: 5.6485
-
    station: BRAHERY
    lon: -5.2683
    lat: 5.4707
-
    station: BRAKAGUHE
    lon: -6.5466
    lat: 6.794
-
    station: BRAYE
    lon: -3.3598
    lat: 7.6271
-
    station: BREDA
    lon: -3.0666
    lat: 8.1671
-
    station: BREGBO
    lon: -3.8238
    lat: 5.3073
-
    station: BREGUADJI
    lon: -6.3722
    lat: 5.2408
-
    station: BRETIHIO
    lon: -6.0996
    lat: 5.7288
-
    station: BREVET
    lon: -5.1312
    lat: 5.7388
-
    station: BRIBORE
    lon: -5.3767
    lat: 5.8194
-
    station: BRIBOUO
    lon: -6.506
    lat: 6.8696
-
    station: BRICOURI1
    lon: -5.7146
    lat: 6.1504
-
    station: BRICOURI2
    lon: -5.709
    lat: 6.1491
-
    station: BRIDOUKRO
    lon: -3.369
    lat: 6.7456
-
    station: BRIEHOA
    lon: -6.2297
    lat: 6.1179
-
    station: BRIGOGOUA
    lon: -6.6011
    lat: 6.513
-
    station: BRIHI
    lon: -5.9178
    lat: 6.4558
-
    station: BRIMA
    lon: -7.468
    lat: 8.0311
-
    station: BRIMALA KOFIN
    lon: -7.8935
    lat: 8.8474
-
    station: BRINDOUKRO
    lon: -3.2888
    lat: 6.8607
-
    station: BRINGAKRO
    lon: -5.0874
    lat: 6.4103
-
    station: BRIZEBOUA
    lon: -6.4703
    lat: 7.009
-
    station: BROBO
    lon: -4.958
    lat: 7.8039
-
    station: BROBO
    lon: -4.827
    lat: 7.6418
-
    station: BRODJE
    lon: -6.0654
    lat: 4.9653
-
    station: BRODOUFLA
    lon: -5.8283
    lat: 7.5126
-
    station: BROFFOUEDOU
    lon: -3.0402
    lat: 7.2281
-
    station: BROFODOUME
    lon: -3.9328
    lat: 5.5104
-
    station: BROGODON
    lon: -3.116
    lat: 8.4006
-
    station: BROHOUAN
    lon: -6.512
    lat: 6.7717
-
    station: BROHOUTA1
    lon: -6.1838
    lat: 7.2535
-
    station: BROHOUTA2
    lon: -6.1778
    lat: 7.2381
-
    station: BROKODALLAH
    lon: -5.8675
    lat: 8.403
-
    station: BROKOYO
    lon: -6.1064
    lat: 5.8713
-
    station: BROMA
    lon: -6.3791
    lat: 6.4789
-
    station: BROMANKOTE
    lon: -3.0342
    lat: 9.3241
-
    station: BRONDA
    lon: -5.6665
    lat: 6.2286
-
    station: BROTTO OU SEP
    lon: -3.3955
    lat: 9.6734
-
    station: BROU AHOUSSOU
    lon: -4.526
    lat: 6.8243
-
    station: BROU AKPAOUSS
    lon: -4.0561
    lat: 6.9034
-
    station: 'BROU M''PO'
    lon: -4.3014
    lat: 6.1871
-
    station: BROU TOTOKRO
    lon: -4.8611
    lat: 7.1692
-
    station: BROU TOTOKRO
    lon: -4.8647
    lat: 7.1579
-
    station: BROU-ATTAKRO
    lon: -3.8111
    lat: 6.6792
-
    station: BROUAFLA KOUY
    lon: -6.6904
    lat: 7.2432
-
    station: BROUAFLA-NATT
    lon: -6.5175
    lat: 7.5935
-
    station: BROUBROU
    lon: -4.8242
    lat: 5.7209
-
    station: BROUBROU-SOKO
    lon: -4.3098
    lat: 8.5211
-
    station: BROUDOUGOU
    lon: -5.1661
    lat: 10.0017
-
    station: BROUDOUKOU-PE
    lon: -5.5154
    lat: 5.5202
-
    station: BROUDOUME
    lon: -5.8685
    lat: 6.3633
-
    station: BROUFLA
    lon: -5.806
    lat: 6.5661
-
    station: BROUKRO
    lon: -4.9134
    lat: 5.9957
-
    station: BROUKRO
    lon: -5.0705
    lat: 7.6605
-
    station: BROUKRO
    lon: -4.8283
    lat: 7.6736
-
    station: BROUKRO
    lon: -5.3635
    lat: 7.5186
-
    station: BROUKRO
    lon: -4.2255
    lat: 6.6436
-
    station: BROUKRO
    lon: -3.2117
    lat: 7.6649
-
    station: BROUKRO BANOU
    lon: -3.3163
    lat: 7.3479
-
    station: BROUZRA
    lon: -5.9381
    lat: 7.6566
-
    station: BROVILLA
    lon: -3.7329
    lat: 8.385
-
    station: BROZAN
    lon: -5.5045
    lat: 6.4003
-
    station: BROZOMBA
    lon: -5.8386
    lat: 8.3908
-
    station: C.C.P. ELAIS
    lon: -3.8945
    lat: 5.4308
-
    station: CADRES SODESU
    lon: -5.2645
    lat: 9.5225
-
    station: CAMPEMENT BER
    lon: -6.6567
    lat: 4.8432
-
    station: CAPONOROGUHE
    lon: -6.5984
    lat: 6.5026
-
    station: CARRIERE 1
    lon: -3.8947
    lat: 5.3586
-
    station: CARRIERE 2
    lon: -3.9008
    lat: 5.3577
-
    station: CECHI
    lon: -4.4203
    lat: 6.2434
-
    station: CENTRE USINE
    lon: -6.6323
    lat: 5.1196
-
    station: CFI BAROKO
    lon: -5.1525
    lat: 5.7256
-
    station: CFI GAWADOUGO
    lon: -5.2418
    lat: 5.6503
-
    station: CHANTIER A.T.
    lon: -4.9378
    lat: 6.3191
-
    station: CHIEPO
    lon: -5.0644
    lat: 5.6949
-
    station: CISSEDOUGOU
    lon: -6.1561
    lat: 8.9044
-
    station: CITE
    lon: -6.6578
    lat: 4.8441
-
    station: COCHEM BAOULE
    lon: -5.412
    lat: 5.5494
-
    station: COCHEM DIDA
    lon: -5.4426
    lat: 5.5531
-
    station: COCO PLACE
    lon: -6.0218
    lat: 4.9717
-
    station: COCODY
    lon: -3.9984
    lat: 5.3466
-
    station: 'COMOE N''DANOU'
    lon: -3.5714
    lat: 7.246
-
    station: 'COMOE N''GOUA'
    lon: -3.6103
    lat: 7.1958
-
    station: COMOEKRO
    lon: -3.4289
    lat: 6.7328
-
    station: COMOEKRO
    lon: -3.6939
    lat: 7.8521
-
    station: COMPLEXE ADK
    lon: -6.9784
    lat: 6.0082
-
    station: COMPLEXE-SUCR
    lon: -6.144
    lat: 7.6032
-
    station: COPA
    lon: -4.1397
    lat: 6.2472
-
    station: COSROU
    lon: -4.6567
    lat: 5.3161
-
    station: COUVE
    lon: -4.7112
    lat: 5.191
-
    station: DABADOUGOU
    lon: -4.2899
    lat: 8.2069
-
    station: DABADOUGOU
    lon: -7.1646
    lat: 9.5806
-
    station: DABADOUGOU MA
    lon: -7.8764
    lat: 9.741
-
    station: DABAKAHA
    lon: -5.4222
    lat: 9.3334
-
    station: DABAKALA
    lon: -4.4267
    lat: 8.3609
-
    station: DABAKALATOU
    lon: -5.7209
    lat: 8.1042
-
    station: DABALA
    lon: -7.1379
    lat: 8.4227
-
    station: DABE
    lon: -6.9233
